price,propertyType,size,rooms,bathrooms,municipality,latitude,longitude,status,priceByArea,hasParkingSpace,isParkingSpaceIncludedInPrice,typology,subtitle,floor,exterior,hasLift
795000.0,flat,201.0,2,2,madrid,40.4442228,-3.6426741,newdevelopment,3955.0,1,1,flat,concepción,intermedio,1,1
330000.0,flat,65.0,1,1,madrid,40.419601,-3.7040219,good,5077.0,0,0,flat,sol,intermedio,0,1
170000.0,chalet,110.0,3,1,campo real,40.3399531,-3.3822931,good,1545.0,0,0,chalet,campo real,alto,1,0
945000.0,penthouse,185.0,3,3,madrid,40.4360269,-3.6956074,good,5108.0,0,0,flat,almagro,mediano,1,1
450000.0,flat,110.0,3,2,villaviciosa de odón,40.3628032,-3.9149046,renew,4091.0,1,1,flat,centro,intermedio,1,1
379000.0,flat,60.0,3,1,madrid,40.4313319,-3.6739798,good,6317.0,0,0,flat,lista,mediano,0,1
950000.0,duplex,155.0,3,2,madrid,40.4182056,-3.7131581,good,6129.0,0,0,flat,palacio,bajo,1,1
440000.0,flat,76.0,1,1,madrid,40.4196471,-3.7081106,good,5789.0,0,0,flat,palacio,intermedio,1,1
45000.0,chalet,80.0,3,1,guadalix de la sierra,40.7817409,-3.6906305,renew,563.0,0,0,chalet,guadalix de la sierra,alto,1,0
160000.0,flat,55.0,2,1,getafe,40.3013232,-3.7373696,renew,2909.0,0,0,flat,la alhóndiga,bajo,1,0
770000.0,flat,130.0,2,2,madrid,40.4188536,-3.7005249,good,5923.0,0,0,flat,chueca-justicia,intermedio,0,1
275000.0,chalet,180.0,5,2,robledo de chavela,40.5217611,-4.2558251,good,1528.0,1,1,chalet,robledo de chavela,alto,1,0
270000.0,flat,60.0,1,1,madrid,40.4634397,-3.6968193,good,4500.0,0,0,flat,cuzco-castillejos,bajo,1,1
410000.0,studio,179.0,0,1,madrid,40.4442228,-3.6426741,newdevelopment,2291.0,1,1,flat,concepción,flat,1,1
495000.0,duplex,84.0,1,1,madrid,40.4604282,-3.6266193,good,5893.0,1,1,flat,conde orgaz-piovera,intermedio,1,1
220000.0,penthouse,52.0,1,1,madrid,40.4429556,-3.5843227,good,4231.0,1,0,flat,rejas,mediano,0,1
715000.0,flat,140.0,4,3,madrid,40.4078988,-3.6869759,good,5107.0,0,0,flat,jerónimos,intermedio,1,1
315000.0,flat,140.0,4,2,san lorenzo de el escorial,40.5980505,-4.1445881,good,2250.0,0,0,flat,abantos - carmelitas,intermedio,1,0
205000.0,penthouse,83.0,2,2,collado villalba,40.6284573,-4.0084811,good,2470.0,0,0,flat,villalba estación,intermedio,1,1
59000.0,flat,80.0,3,1,ciempozuelos,40.1517624,-3.6161675,good,738.0,0,0,flat,cuevas - ilustración,bajo,1,1
352000.0,chalet,150.0,4,3,meco,40.5472567,-3.3300527,good,2347.0,0,0,chalet,meco,alto,1,0
213000.0,flat,104.0,3,2,madrid,40.4796385,-3.6988317,good,2048.0,1,1,flat,la paz,mediano,1,1
379000.0,chalet,269.0,3,2,móstoles,40.3151167,-3.9350987,good,1409.0,0,0,chalet,coimbra - guadarrama,alto,1,0
229000.0,flat,47.0,1,1,madrid,40.4574606,-3.7037119,good,4872.0,0,0,flat,berruguete,bajo,1,1
109500.0,countryhouse,116.0,2,2,pinilla del valle,40.9277837,-3.819162,good,944.0,0,0,countryhouse,pinilla del valle,muy alto,1,0
195900.0,flat,85.0,3,2,san fernando de henares,40.4195332,-3.5261165,good,2305.0,1,1,flat,parque roma - coronas,intermedio,1,1
89000.0,flat,57.0,3,1,madrid,40.4241418,-3.6521683,renew,1561.0,0,0,flat,ventas,bajo,1,0
152000.0,flat,84.0,3,1,madrid,40.4745827,-3.6367755,renew,1810.0,0,0,flat,pinar del rey,intermedio,1,0
193000.0,flat,61.0,1,1,madrid,40.4275895,-3.6397357,good,3164.0,1,0,flat,pueblo nuevo,intermedio,1,1
65900.0,flat,80.0,3,1,cenicientos,40.2628675,-4.463419,good,824.0,0,0,flat,cenicientos,intermedio,1,0
179000.0,flat,96.0,3,2,alcalá de henares,40.4735232,-3.3644611,good,1865.0,0,0,flat,venecia - nueva alcalá,mediano,1,1
265000.0,flat,53.0,2,1,alcobendas,40.5482793,-3.6369892,newdevelopment,5000.0,1,0,flat,ensanche,bajo,1,1
415000.0,flat,133.0,4,3,madrid,40.4877322,-3.6653811,good,3120.0,0,0,flat,virgen del cortijo - manoteras,intermedio,1,1
561947.0,penthouse,117.0,1,1,madrid,40.3886336,-3.6937319,newdevelopment,4803.0,1,1,flat,legazpi,mediano,1,1
319500.0,chalet,226.0,4,3,robledo de chavela,40.5098074,-4.244113,good,1414.0,1,1,chalet,robledo de chavela,alto,1,0
162800.0,duplex,70.0,2,1,arganda,40.3001178,-3.4395184,good,2326.0,1,1,flat,centro,bajo,1,0
250000.0,flat,62.0,1,1,majadahonda,40.4704199,-3.8759536,good,4032.0,0,0,flat,casco antiguo,intermedio,1,1
205000.0,penthouse,83.0,2,2,collado villalba,40.6284842,-4.0088283,good,2470.0,0,0,flat,villalba estación,intermedio,1,1
145000.0,chalet,120.0,2,3,los santos de la humosa,40.5031806,-3.2520276,good,1208.0,1,1,chalet,los santos de la humosa,alto,1,0
82000.0,flat,60.0,3,1,madrid,40.4030231,-3.7567729,renew,1367.0,0,0,flat,lucero,intermedio,1,0
81000.0,flat,76.0,3,1,ciempozuelos,40.1554833,-3.6344545,renew,1066.0,0,0,flat,los cestos - belén - las eras,intermedio,1,1
165000.0,flat,85.0,3,1,fuenlabrada,40.2778786,-3.7986393,good,1941.0,0,0,flat,el arroyo - la fuente,mediano,1,1
509000.0,chalet,293.0,3,3,alcalá de henares,40.5101127,-3.3548813,newdevelopment,1737.0,1,1,chalet,el pilar - bripac,alto,1,0
519000.0,chalet,297.0,3,3,alcalá de henares,40.5101127,-3.3548813,newdevelopment,1747.0,1,1,chalet,el pilar - bripac,alto,1,0
530000.0,flat,152.0,4,2,madrid,40.4886274,-3.7174482,good,3487.0,1,1,flat,arroyo del fresno,bajo,1,1
98000.0,chalet,105.0,3,1,alameda del valle,40.9166199,-3.8439047,renew,933.0,0,0,chalet,alameda del valle,alto,1,0
515000.0,chalet,220.0,4,3,rivas-vaciamadrid,40.3538203,-3.5143594,good,2341.0,1,1,chalet,rivas centro,alto,1,0
399000.0,duplex,122.0,3,3,tres cantos,40.6099628,-3.7168136,good,3270.0,1,1,flat,primera fase - nuevo tres cantos,intermedio,1,1
210000.0,flat,40.0,1,1,madrid,40.4088508,-3.70292,good,5250.0,0,0,flat,lavapiés-embajadores,bajo,1,1
249000.0,duplex,149.0,1,2,miraflores de la sierra,40.8127007,-3.7646339,good,1671.0,1,1,flat,miraflores de la sierra,intermedio,1,1
475000.0,flat,80.0,1,1,madrid,40.4681297,-3.7084941,good,5938.0,1,1,flat,valdeacederas,mediano,1,1
185000.0,chalet,114.0,2,1,fuentidueña de tajo,40.1210557,-3.1632963,good,1623.0,1,1,chalet,fuentidueña de tajo,alto,1,0
595000.0,flat,95.0,3,2,madrid,40.3897788,-3.6942226,good,6263.0,1,1,flat,legazpi,flat,1,1
110000.0,chalet,211.0,3,1,villarejo de salvanés,40.1160932,-3.2463702,good,521.0,0,0,chalet,villarejo de salvanés,alto,1,0
199000.0,flat,136.0,2,2,pinto,40.2460898,-3.699894,good,1463.0,0,0,flat,parque europa - los pitufos,flat,0,1
157500.0,flat,77.0,3,1,alcalá de henares,40.4867978,-3.3569617,good,2045.0,0,0,flat,juan de austria,intermedio,0,1
336000.0,duplex,96.0,2,2,madrid,40.3940417,-3.6702557,newdevelopment,3500.0,0,0,flat,san diego,intermedio,1,1
134000.0,chalet,280.0,3,2,serranillos del valle,40.2045151,-3.8842297,renew,479.0,1,1,chalet,serranillos del valle,alto,1,0
249900.0,duplex,240.0,0,1,getafe,40.3027781,-3.7352564,renew,1041.0,0,0,flat,la alhóndiga,bajo,1,0
223000.0,flat,55.0,1,1,madrid,40.4096107,-3.7033465,good,4055.0,0,0,flat,lavapiés-embajadores,intermedio,1,0
188500.0,duplex,111.0,2,3,valdemoro,40.1886054,-3.6798854,good,1698.0,1,1,flat,centro,intermedio,1,0
137000.0,flat,65.0,1,1,aranjuez,40.0271794,-3.6067294,good,2108.0,1,1,flat,centro,bajo,1,1
220000.0,flat,72.0,2,1,madrid,40.474259,-3.6600218,good,3056.0,0,0,flat,apóstol santiago,intermedio,0,0
117000.0,chalet,109.0,3,2,cadalso de los vidrios,40.3112476,-4.4318863,good,1073.0,1,1,chalet,cadalso de los vidrios,alto,1,0
116600.0,chalet,167.0,4,3,orusco,40.2873708,-3.2066819,good,698.0,1,1,chalet,orusco,alto,1,0
377664.0,flat,127.0,3,2,madrid,40.4885288,-3.6691972,good,2974.0,0,0,flat,virgen del cortijo - manoteras,intermedio,1,1
275000.0,chalet,127.0,4,2,colmenar de oreja,40.0714857,-3.4919383,good,2165.0,0,0,chalet,colmenar de oreja,alto,1,0
81000.0,flat,102.0,1,1,san lorenzo de el escorial,40.6004705,-4.137611,good,794.0,0,0,flat,zaburdón - monte escorial,flat,0,0
81000.0,flat,102.0,1,1,san lorenzo de el escorial,40.5941005,-4.1476816,good,794.0,0,0,flat,abantos - carmelitas,bajo,1,0
300000.0,flat,146.0,3,2,san lorenzo de el escorial,40.5938533,-4.1475814,renew,2055.0,0,0,flat,centro - casco histórico,intermedio,1,0
419900.0,penthouse,88.0,2,2,madrid,40.3739308,-3.7714557,newdevelopment,4772.0,1,1,flat,cuatro vientos,flat,1,1
583900.0,penthouse,100.0,3,2,madrid,40.3739308,-3.7714557,newdevelopment,5839.0,1,1,flat,cuatro vientos,flat,1,1
90000.0,flat,70.0,2,1,san martín de valdeiglesias,40.3905559,-4.3684052,good,1286.0,0,0,flat,san martín de valdeiglesias,intermedio,1,0
249000.0,flat,112.0,2,1,san lorenzo de el escorial,40.5928415,-4.1509338,good,2223.0,0,0,flat,centro - casco histórico,intermedio,1,1
375000.0,flat,71.0,1,1,madrid,40.4864288,-3.6675851,good,5282.0,1,1,flat,virgen del cortijo - manoteras,mediano,1,1
259000.0,duplex,149.0,2,2,miraflores de la sierra,40.8135004,-3.7647687,good,1738.0,1,1,flat,miraflores de la sierra,intermedio,1,1
290000.0,flat,80.0,3,1,madrid,40.4332054,-3.7108984,good,3625.0,0,0,flat,arapiles,bajo,1,1
47000.0,flat,101.0,3,1,cadalso de los vidrios,40.3015129,-4.4434752,good,465.0,0,0,flat,cadalso de los vidrios,flat,0,0
310000.0,chalet,180.0,4,3,villalbilla,40.4300895,-3.2898322,newdevelopment,1722.0,0,0,chalet,villalbilla,alto,1,0
65000.0,countryhouse,186.0,2,1,orusco,40.2843311,-3.2071794,good,349.0,1,1,countryhouse,orusco,muy alto,1,0
421500.0,flat,125.0,3,2,alcobendas,40.5373163,-3.633194,good,3372.0,1,1,flat,alcobendas centro,intermedio,1,1
595000.0,chalet,230.0,3,3,getafe,40.3207689,-3.7054255,newdevelopment,2587.0,1,1,chalet,los molinos,alto,1,0
233000.0,flat,83.0,2,2,paracuellos de jarama,40.5035358,-3.5326013,good,2807.0,0,0,flat,casco urbano,intermedio,1,1
265900.0,penthouse,128.0,4,2,madrid,40.3710991,-3.6253414,good,2077.0,0,0,flat,casco histórico de vallecas,intermedio,1,1
150000.0,flat,75.0,2,1,navalafuente,40.8242176,-3.6736637,good,2000.0,1,1,flat,navalafuente,intermedio,1,0
325000.0,flat,89.0,2,2,madrid,40.4011558,-3.5486031,newdevelopment,3652.0,1,1,flat,el cañaveral,mediano,1,1
250000.0,studio,67.0,0,1,madrid,40.5068315,-3.6561118,good,3731.0,1,1,flat,sanchinarro,intermedio,1,1
69900.0,flat,58.0,1,1,madrid,40.3974162,-3.6621959,good,1205.0,0,0,flat,numancia,intermedio,1,1
300000.0,chalet,101.0,1,2,pozuelo de alarcón,40.4341383,-3.8159947,good,2970.0,0,0,chalet,zona pueblo,alto,1,0
295000.0,flat,90.0,3,1,collado villalba,40.6270051,-3.9964344,good,3278.0,0,0,flat,villalba estación,intermedio,1,0
99000.0,countryhouse,90.0,1,1,navalcarnero,40.2911264,-4.0124536,good,1100.0,0,0,countryhouse,centro,muy alto,1,0
420000.0,chalet,238.0,4,3,valdemorillo,40.4996911,-4.0657798,good,1765.0,0,0,chalet,valdemorillo pueblo,alto,1,0
320000.0,chalet,180.0,4,3,valdeavero,40.6339062,-3.3333541,good,1778.0,1,1,chalet,valdeavero,alto,1,0
215000.0,chalet,191.0,3,1,pelayos de la presa,40.3612391,-4.3221973,good,1126.0,1,1,chalet,pelayos de la presa,alto,1,0
395000.0,flat,202.0,3,2,las rozas de madrid,40.4928726,-3.8742739,good,1955.0,1,1,flat,casco antiguo,bajo,1,1
418000.0,chalet,277.0,4,3,parla,40.2371983,-3.7750613,good,1509.0,1,1,chalet,parque inlasa,alto,1,0
310890.0,chalet,97.0,3,1,navalcarnero,40.2869636,-4.013783,good,3205.0,0,0,chalet,centro,alto,1,0
395000.0,flat,94.0,3,2,madrid,40.40579,-3.55026,newdevelopment,4202.0,1,1,flat,el cañaveral,bajo,1,1
380000.0,flat,74.0,2,2,madrid,40.40579,-3.55026,newdevelopment,5135.0,1,1,flat,el cañaveral,bajo,1,1
359000.0,penthouse,84.0,2,2,madrid,40.40579,-3.55026,newdevelopment,4274.0,1,1,flat,el cañaveral,mediano,1,1
365000.0,flat,94.0,3,2,madrid,40.40579,-3.55026,newdevelopment,3883.0,1,1,flat,el cañaveral,bajo,1,1
315000.0,flat,70.0,2,2,madrid,40.40579,-3.55026,newdevelopment,4500.0,1,1,flat,el cañaveral,intermedio,1,1
399000.0,penthouse,76.0,2,2,madrid,40.40579,-3.55026,newdevelopment,5250.0,1,1,flat,el cañaveral,mediano,1,1
302000.0,flat,74.0,2,2,madrid,40.40579,-3.55026,newdevelopment,4081.0,1,1,flat,el cañaveral,intermedio,1,1
299000.0,flat,74.0,2,2,madrid,40.40579,-3.55026,newdevelopment,4041.0,1,1,flat,el cañaveral,intermedio,1,1
354000.0,chalet,278.0,4,3,el álamo,40.2358822,-3.9895349,good,1273.0,1,1,chalet,el álamo,alto,1,0
154000.0,flat,60.0,3,1,leganés,40.3259927,-3.7726207,good,2567.0,0,0,flat,descubridores-escritores,intermedio,1,1
510000.0,chalet,285.0,4,3,loeches,40.3885078,-3.4145149,good,1789.0,1,1,chalet,loeches,alto,1,0
278000.0,flat,62.0,2,3,madrid,40.3964608,-3.6925859,renew,4484.0,0,0,flat,delicias,intermedio,0,1
207000.0,duplex,103.0,3,2,valdemoro,40.1886747,-3.6765008,good,2010.0,1,1,flat,centro,intermedio,1,0
487800.0,chalet,145.0,5,3,colmenar viejo,40.64978,-3.77573,newdevelopment,3364.0,1,1,chalet,san crispín - la estación consorcio,alto,1,0
320000.0,chalet,200.0,3,3,villanueva de perales,40.3474147,-4.1026723,newdevelopment,1600.0,0,0,chalet,villanueva de perales,alto,1,0
310000.0,chalet,200.0,3,3,villanueva de perales,40.3474147,-4.1026723,newdevelopment,1550.0,0,0,chalet,villanueva de perales,alto,1,0
360000.0,chalet,200.0,3,3,villanueva de perales,40.3474147,-4.1026723,newdevelopment,1800.0,0,0,chalet,villanueva de perales,alto,1,0
340000.0,chalet,200.0,3,3,villanueva de perales,40.3474147,-4.1026723,newdevelopment,1700.0,0,0,chalet,villanueva de perales,alto,1,0
240000.0,flat,95.0,3,2,arganda,40.296005,-3.4304296,newdevelopment,2526.0,1,1,flat,el mirador - grillero,intermedio,1,1
250000.0,flat,90.0,3,2,arganda,40.296005,-3.4304296,newdevelopment,2778.0,1,1,flat,el mirador - grillero,intermedio,1,1
225000.0,flat,90.0,3,2,arganda,40.296005,-3.4304296,newdevelopment,2500.0,1,1,flat,el mirador - grillero,intermedio,1,1
575000.0,flat,112.0,1,2,madrid,40.4254382,-3.7038613,good,5134.0,0,0,flat,malasaña-universidad,intermedio,0,0
230000.0,flat,95.0,3,2,arganda,40.296005,-3.4304296,newdevelopment,2421.0,1,1,flat,el mirador - grillero,intermedio,1,1
220000.0,flat,95.0,3,2,arganda,40.296005,-3.4304296,newdevelopment,2316.0,1,1,flat,el mirador - grillero,intermedio,1,1
245000.0,flat,90.0,3,2,arganda,40.296005,-3.4304296,newdevelopment,2722.0,1,1,flat,el mirador - grillero,intermedio,1,1
254000.0,flat,109.0,4,2,madrid,40.3796123,-3.625357,good,2330.0,0,0,flat,casco histórico de vallecas,intermedio,1,1
230000.0,flat,50.0,2,2,madrid,40.4062551,-3.7454791,good,4600.0,0,0,flat,lucero,bajo,1,1
195000.0,flat,68.0,2,1,torrejón de ardoz,40.4620961,-3.4785416,good,2868.0,0,0,flat,noroeste,intermedio,1,1
84000.0,chalet,89.0,3,1,villa del prado,40.27526,-4.3047245,good,944.0,0,0,chalet,villa del prado,alto,1,0
230000.0,flat,95.0,3,2,arganda,40.296005,-3.4304296,newdevelopment,2421.0,1,1,flat,el mirador - grillero,intermedio,1,1
406000.0,duplex,172.0,4,3,leganés,40.329644,-3.7619006,good,2360.0,1,1,flat,casco antiguo,intermedio,1,1
447300.0,flat,131.0,4,2,leganés,40.3407,-3.78435,newdevelopment,3415.0,1,1,flat,poza del agua,intermedio,1,1
235000.0,chalet,195.0,3,2,alpedrete,40.6594443,-4.0246596,renew,1205.0,0,0,chalet,alpedrete,alto,1,0
329000.0,flat,79.0,3,1,madrid,40.4254246,-3.7019185,renew,4165.0,0,0,flat,malasaña-universidad,flat,0,1
239000.0,flat,59.0,2,1,madrid,40.4623537,-3.7036587,good,4051.0,0,0,flat,berruguete,bajo,1,0
120000.0,chalet,160.0,2,1,torremocha de jarama,40.8359511,-3.4985272,renew,750.0,0,0,chalet,torremocha de jarama,alto,1,0
425000.0,chalet,211.0,3,3,torrejón de ardoz,40.4421991,-3.4656263,newdevelopment,2014.0,1,1,chalet,suroeste,alto,1,0
450000.0,chalet,225.0,4,3,arganda,40.3124223,-3.4421416,good,2000.0,1,1,chalet,los villares,alto,1,0
225000.0,flat,119.0,4,2,torrejón de ardoz,40.4466622,-3.4604866,good,1891.0,0,0,flat,sureste,mediano,1,1
239000.0,studio,67.0,0,1,madrid,40.454516,-3.7011075,good,3567.0,0,0,flat,cuatro caminos,bajo,1,0
571000.0,flat,100.0,2,2,majadahonda,40.4466077,-3.8815966,newdevelopment,5710.0,1,1,flat,los satélites - roza martín,intermedio,1,1
350000.0,chalet,200.0,4,3,navalcarnero,40.2873898,-4.0087177,good,1750.0,1,1,chalet,centro,alto,1,0
252000.0,flat,88.0,3,2,san agustin de guadalix,40.6802169,-3.6170418,good,2864.0,0,0,flat,san agustin de guadalix,bajo,1,1
199900.0,flat,61.0,2,1,madrid,40.4316236,-3.6472862,good,3277.0,0,0,flat,ventas,intermedio,1,0
152000.0,flat,47.0,1,1,madrid,40.483598,-3.7253942,good,3234.0,0,0,flat,peñagrande,ss,1,0
300000.0,flat,105.0,3,2,moraleja de enmedio,40.2622744,-3.8660804,good,2857.0,0,0,flat,moraleja de enmedio,bajo,1,0
145000.0,chalet,201.0,3,2,colmenar de oreja,40.0810308,-3.4522132,good,721.0,0,0,chalet,colmenar de oreja,alto,1,0
360000.0,flat,65.0,1,1,madrid,40.4018086,-3.7007728,good,5538.0,1,1,flat,palos de la frontera,intermedio,1,1
179900.0,flat,55.0,1,1,madrid,40.3413588,-3.7038023,good,3271.0,1,1,flat,villaverde alto,intermedio,1,1
169000.0,flat,85.0,3,1,san lorenzo de el escorial,40.5909826,-4.1467642,renew,1988.0,0,0,flat,centro - casco histórico,intermedio,1,0
150000.0,flat,48.0,1,1,colmenar viejo,40.6610579,-3.7688816,good,3125.0,0,0,flat,centro,intermedio,1,0
217000.0,flat,85.0,2,2,colmenarejo,40.5619428,-4.0146781,newdevelopment,2553.0,1,1,flat,colmenarejo,bajo,1,1
240000.0,flat,95.0,2,2,colmenarejo,40.5619428,-4.0146781,newdevelopment,2526.0,1,1,flat,colmenarejo,intermedio,1,1
259000.0,flat,76.0,2,2,madrid,40.3895531,-3.7199884,good,3408.0,1,1,flat,opañel,intermedio,1,1
239000.0,chalet,213.0,4,2,chapineria,40.382871,-4.2150952,good,1122.0,1,1,chalet,chapineria,alto,1,0
149500.0,flat,52.0,1,1,leganés,40.3290495,-3.7648047,good,2875.0,0,0,flat,casco antiguo,intermedio,1,0
100000.0,duplex,80.0,2,2,gargantilla del lozoya,40.9651289,-3.7164394,good,1250.0,0,0,flat,gargantilla del lozoya,intermedio,1,0
414000.0,chalet,240.0,5,3,hoyo de manzanares,40.6215488,-3.908721,good,1725.0,0,0,chalet,hoyo de manzanares,alto,1,0
375000.0,flat,70.0,3,2,madrid,40.475582,-3.6428213,good,5357.0,0,0,flat,pinar del rey,bajo,1,1
395000.0,chalet,239.0,4,3,eurovillas,40.3489309,-3.2672748,good,1653.0,1,1,chalet,eurovillas,alto,1,0
119900.0,chalet,168.0,4,2,orusco,40.286857,-3.2103347,good,714.0,1,1,chalet,orusco,alto,1,0
175000.0,duplex,78.0,2,1,galapagar,40.5797105,-4.0063326,good,2244.0,1,1,flat,casco antiguo,intermedio,1,1
380000.0,chalet,260.0,4,3,parla,40.2348653,-3.7614296,good,1462.0,1,1,chalet,reyes,alto,1,0
152000.0,flat,48.0,1,1,madrid,40.4811529,-3.726197,renew,3167.0,0,0,flat,peñagrande,ss,1,0
149000.0,flat,68.0,3,1,alcalá de henares,40.4890273,-3.3692113,good,2191.0,0,0,flat,chorrillo,intermedio,1,0
176000.0,flat,89.0,2,2,alcalá de henares,40.4760449,-3.371041,good,1978.0,0,0,flat,reyes católicos,intermedio,1,0
255000.0,flat,96.0,4,1,getafe,40.307145,-3.73139,good,2656.0,0,0,flat,getafe centro,bajo,0,1
110000.0,countryhouse,107.0,3,2,carabaña,40.2572042,-3.2378092,good,1028.0,0,0,countryhouse,carabaña,bajo,1,0
400000.0,flat,148.0,3,2,alcorcón,40.3382283,-3.8537064,good,2703.0,1,1,flat,parque oeste - fuente cisneros,intermedio,1,1
169000.0,flat,75.0,3,1,alcalá de henares,40.4877394,-3.353434,good,2253.0,0,0,flat,juan de austria,intermedio,1,1
255000.0,flat,96.0,4,1,getafe,40.3046774,-3.7297247,good,2656.0,0,0,flat,getafe centro,bajo,1,1
290000.0,flat,58.0,1,1,madrid,40.4591359,-3.6459865,good,5000.0,1,1,flat,canillas,flat,1,1
210000.0,duplex,152.0,4,3,la cabrera,40.8662843,-3.6125443,good,1382.0,0,0,flat,la cabrera,intermedio,1,0
377664.0,flat,127.0,3,2,madrid,40.4904787,-3.6677429,good,2974.0,0,0,flat,virgen del cortijo - manoteras,intermedio,1,0
425000.0,countryhouse,219.0,6,2,navalafuente,40.8265114,-3.6633571,renew,1941.0,1,1,countryhouse,navalafuente,muy alto,1,0
210000.0,flat,45.0,1,1,madrid,40.4522753,-3.7061948,good,4667.0,0,0,flat,bellas vistas,en,1,1
140000.0,flat,33.0,1,1,madrid,40.4121218,-3.703333,good,4242.0,0,0,flat,lavapiés-embajadores,intermedio,0,0
185000.0,flat,129.0,3,2,ciempozuelos,40.1534059,-3.6211233,good,1434.0,1,1,flat,casco antiguo sur,intermedio,1,1
128800.0,flat,80.0,3,1,parla,40.2380935,-3.7761052,good,1610.0,0,0,flat,centro,intermedio,1,1
160000.0,chalet,131.0,3,1,cercedilla,40.7444793,-4.0568807,renew,1221.0,0,0,chalet,cercedilla,alto,1,0
399000.0,chalet,185.0,4,1,manzanares el real,40.7273384,-3.8662956,renew,2157.0,1,1,chalet,manzanares el real,alto,1,0
284500.0,penthouse,110.0,2,1,alcalá de henares,40.5050171,-3.382603,newdevelopment,2586.0,1,1,flat,las sedas - el olivar,mediano,1,1
389000.0,penthouse,73.0,1,1,madrid,40.4604294,-3.7055245,newdevelopment,5329.0,1,1,flat,berruguete,flat,1,1
288500.0,flat,109.0,3,2,alcalá de henares,40.5050171,-3.382603,newdevelopment,2647.0,1,1,flat,las sedas - el olivar,intermedio,1,1
346000.0,flat,135.0,4,2,alcalá de henares,40.5050171,-3.382603,newdevelopment,2563.0,1,1,flat,las sedas - el olivar,intermedio,1,1
281500.0,penthouse,108.0,2,1,alcalá de henares,40.5050171,-3.382603,newdevelopment,2606.0,1,1,flat,las sedas - el olivar,mediano,1,1
149000.0,studio,47.0,0,1,madrid,40.4270645,-3.6442527,good,3170.0,0,0,flat,pueblo nuevo,bajo,1,1
379000.0,chalet,261.0,4,3,valdemoro,40.1736633,-3.6895741,good,1452.0,1,1,chalet,restón i - restón ii,alto,1,0
169000.0,flat,82.0,4,1,san lorenzo de el escorial,40.5905106,-4.1493406,renew,2061.0,0,0,flat,centro - casco histórico,intermedio,1,0
188000.0,duplex,114.0,3,2,algete,40.592582,-3.4968678,good,1649.0,0,0,flat,algete,intermedio,1,0
305000.0,penthouse,120.0,4,2,boadilla del monte,40.4054119,-3.8771637,good,2542.0,0,0,flat,casco antiguo,intermedio,1,0
410000.0,chalet,141.0,3,3,torrejón de ardoz,40.4403307,-3.4687536,newdevelopment,2908.0,1,1,chalet,suroeste,alto,1,0
450000.0,flat,110.0,4,2,madrid,40.3958763,-3.6964134,good,4091.0,0,0,flat,delicias,intermedio,1,1
128000.0,duplex,72.0,3,2,carabaña,40.2566019,-3.2376174,good,1778.0,1,1,flat,carabaña,bajo,1,0
259000.0,chalet,120.0,3,3,las rozas de madrid,40.4942998,-3.8735428,renew,2158.0,0,0,chalet,zona estación,alto,1,0
217000.0,flat,90.0,3,2,madrid,40.3953283,-3.6595037,renew,2411.0,0,0,flat,numancia,intermedio,1,1
90000.0,flat,45.0,1,1,madrid,40.3985889,-3.6640985,renew,2000.0,0,0,flat,numancia,bajo,1,1
66000.0,flat,30.0,1,1,madrid,40.3864155,-3.6657725,renew,2200.0,0,0,flat,san diego,intermedio,1,1
169000.0,duplex,110.0,3,2,valdemoro,40.1910181,-3.6789082,renew,1536.0,0,0,flat,centro,intermedio,1,0
160000.0,flat,79.0,2,0,galapagar,40.5775822,-4.0018121,renew,2025.0,0,0,flat,casa amarilla,bajo,1,0
350000.0,duplex,78.0,1,1,san sebastián de los reyes,40.539345,-3.6239814,good,4487.0,0,0,flat,vega de la moraleja,intermedio,1,1
130000.0,flat,70.0,2,1,leganés,40.3305875,-3.7587049,good,1857.0,0,0,flat,santos,bajo,1,0
398900.0,flat,138.0,2,3,colmenar viejo,40.6687207,-3.7732385,newdevelopment,2891.0,1,1,flat,el mirador,bajo,1,1
225000.0,flat,75.0,2,1,madrid,40.4602848,-3.7041461,renew,3000.0,0,0,flat,berruguete,intermedio,1,0
179900.0,penthouse,88.0,2,1,el escorial,40.6035443,-4.0600299,good,2044.0,1,1,flat,navalquejigo - los arroyos,intermedio,1,0
412400.0,flat,120.0,3,2,leganés,40.3407,-3.78435,newdevelopment,3437.0,1,1,flat,poza del agua,intermedio,1,1
259000.0,flat,120.0,3,3,las rozas de madrid,40.4917967,-3.8736701,renew,2158.0,0,0,flat,zona estación,flat,0,0
477000.0,chalet,298.0,5,3,fuente el saz de jarama,40.6305677,-3.5127115,good,1601.0,1,1,chalet,fuente el saz de jarama,alto,1,0
175000.0,flat,79.0,2,2,galapagar,40.5772408,-4.0080833,good,2215.0,1,1,flat,casco antiguo,intermedio,1,1
475000.0,chalet,298.0,4,3,manzanares el real,40.7313576,-3.8811591,good,1594.0,1,1,chalet,manzanares el real,alto,1,0
255000.0,flat,95.0,4,2,getafe,40.3043724,-3.729903,good,2684.0,0,0,flat,getafe centro,bajo,0,1
599000.0,penthouse,114.0,1,2,madrid,40.4133459,-3.7065662,good,5254.0,0,0,flat,lavapiés-embajadores,mediano,1,1
599000.0,penthouse,116.0,2,2,madrid,40.4133459,-3.7065662,good,5164.0,0,0,flat,lavapiés-embajadores,mediano,1,1
90000.0,flat,131.0,3,1,pinilla del valle,40.9263224,-3.8174734,renew,687.0,1,1,flat,pinilla del valle,intermedio,1,0
255000.0,flat,95.0,4,1,getafe,40.3058161,-3.7295046,good,2684.0,0,0,flat,getafe centro,bajo,1,1
305410.0,chalet,101.0,2,1,pozuelo de alarcón,40.4448663,-3.8050018,renew,3024.0,0,0,chalet,zona estación,alto,1,0
549900.0,chalet,292.0,4,3,guadarrama,40.6694554,-4.0975502,good,1883.0,1,1,chalet,guadarrama,alto,1,0
157000.0,flat,70.0,2,1,el molar,40.7370677,-3.5807809,good,2243.0,1,1,flat,el molar,intermedio,1,0
572000.0,duplex,101.0,3,3,madrid,40.4575814,-3.7814926,newdevelopment,5663.0,1,1,flat,aravaca,intermedio,1,1
125000.0,chalet,134.0,3,1,chinchón,40.1415369,-3.4206021,good,933.0,0,0,chalet,chinchón,alto,1,0
366000.0,flat,147.0,1,1,madrid,40.4577814,-3.6685653,good,2490.0,0,0,flat,bernabéu-hispanoamérica,bajo,1,1
307000.0,flat,120.0,3,2,collado villalba,40.6282577,-4.0063357,good,2558.0,0,0,flat,villalba estación,intermedio,0,1
220000.0,flat,56.0,2,1,madrid,40.4035493,-3.6822382,renew,3929.0,0,0,flat,pacífico,bajo,0,0
175000.0,duplex,78.0,2,2,galapagar,40.5767431,-4.0051774,good,2244.0,1,1,flat,casco antiguo,intermedio,1,1
58400.0,chalet,168.0,4,2,villarejo de salvanés,40.169707,-3.2738522,renew,348.0,0,0,chalet,villarejo de salvanés,alto,1,0
225000.0,chalet,103.0,3,2,colmenar de oreja,40.0741572,-3.4988896,good,2184.0,0,0,chalet,colmenar de oreja,alto,1,0
449000.0,flat,171.0,3,3,madrid,40.3826684,-3.6925612,good,2626.0,0,0,flat,12 de octubre-orcasur,bajo,1,1
200000.0,flat,100.0,3,2,navalcarnero,40.2911328,-4.0107022,good,2000.0,0,0,flat,centro,bajo,1,0
285000.0,chalet,180.0,3,2,valdemaqueda,40.5082235,-4.2727197,good,1583.0,1,1,chalet,valdemaqueda,alto,1,0
85000.0,flat,110.0,4,1,robledo de chavela,40.4991774,-4.2385838,renew,773.0,0,0,flat,robledo de chavela,intermedio,1,0
370000.0,flat,80.0,1,1,madrid,40.4477702,-3.6287336,good,4625.0,0,0,flat,salvador,intermedio,1,1
147200.0,flat,61.0,2,1,alcalá de henares,40.4848845,-3.3494264,good,2413.0,0,0,flat,val,bajo,1,1
193000.0,flat,51.0,1,1,soto del real,40.7520331,-3.7909958,good,3784.0,0,0,flat,soto del real,bajo,1,1
164000.0,duplex,85.0,2,2,alcalá de henares,40.4737391,-3.3931223,good,1929.0,1,0,flat,la garena,intermedio,1,1
280000.0,chalet,107.0,3,2,galapagar,40.578403,-3.9999471,good,2617.0,0,0,chalet,casa amarilla,alto,1,0
308000.0,flat,102.0,3,3,navalcarnero,40.2937176,-4.0057536,newdevelopment,3020.0,1,1,flat,centro,bajo,1,1
175000.0,chalet,150.0,4,3,perales de tajuña,40.2325664,-3.3513175,good,1167.0,0,0,chalet,perales de tajuña,alto,1,0
48000.0,chalet,106.0,2,1,villar del olmo,40.3378,-3.2352483,renew,453.0,0,0,chalet,villar del olmo,alto,1,0
168000.0,chalet,218.0,3,1,cadalso de los vidrios,40.3025149,-4.4425021,good,771.0,0,0,chalet,cadalso de los vidrios,alto,1,0
225000.0,flat,88.0,3,1,madrid,40.4286405,-3.6323773,good,2557.0,0,0,flat,simancas,intermedio,0,0
130000.0,flat,75.0,2,2,valdilecha,40.2935293,-3.3017934,good,1733.0,1,1,flat,valdilecha,intermedio,1,0
379000.0,flat,63.0,2,2,madrid,40.3969644,-3.6696522,newdevelopment,6016.0,0,0,flat,san diego,bajo,1,1
459000.0,duplex,71.0,2,1,madrid,40.3969644,-3.6696522,newdevelopment,6465.0,0,0,flat,san diego,intermedio,1,1
470000.0,chalet,290.0,3,3,collado villalba,40.6490111,-3.9648741,good,1621.0,1,1,chalet,fontenebro - altavista,alto,1,0
575000.0,chalet,100.0,3,2,madrid,40.4421145,-3.6477726,good,5750.0,0,0,chalet,concepción,alto,1,0
580000.0,flat,102.0,3,1,madrid,40.4189375,-3.7107495,good,5686.0,0,0,flat,palacio,ss,1,1
590000.0,flat,90.0,2,2,madrid,40.4262189,-3.6777882,good,6556.0,0,0,flat,goya,flat,0,1
175000.0,flat,68.0,1,1,madrid,40.3801093,-3.6349186,good,2574.0,1,1,flat,palomeras sureste,mediano,1,1
499900.0,flat,115.0,3,2,madrid,40.496469,-3.6740772,good,4347.0,1,1,flat,las tablas,mediano,1,1
259000.0,duplex,118.0,3,2,collado villalba,40.628938,-4.0036595,good,2195.0,1,1,flat,villalba estación,intermedio,1,1
179900.0,flat,70.0,2,1,madrid,40.397197,-3.7202058,good,2570.0,0,0,flat,opañel,bajo,1,1
264000.0,chalet,170.0,4,3,aranjuez,40.0568055,-3.6002275,good,1553.0,1,1,chalet,la montaña-el cortijo,alto,1,0
135000.0,flat,60.0,1,1,madrid,40.3968132,-3.7347984,good,2250.0,0,0,flat,san isidro,intermedio,1,1
168000.0,flat,90.0,3,1,coslada,40.4398187,-3.5341355,good,1867.0,0,0,flat,barrio de la estación,bajo,1,1
314000.0,chalet,280.0,3,3,villalbilla,40.431008,-3.2917159,newdevelopment,1121.0,1,1,chalet,villalbilla,alto,1,0
429000.0,chalet,275.0,4,3,alpedrete,40.642911,-4.0260081,good,1560.0,0,0,chalet,alpedrete,alto,1,0
123500.0,flat,86.0,3,1,griñón,40.2149733,-3.8534224,good,1436.0,0,0,flat,griñón,intermedio,1,0
165000.0,flat,82.0,3,2,loeches,40.3855796,-3.4102902,newdevelopment,2012.0,1,1,flat,loeches,flat,1,1
160000.0,flat,80.0,2,1,loeches,40.3855796,-3.4102902,newdevelopment,2000.0,1,1,flat,loeches,flat,1,1
178000.0,flat,91.0,2,2,loeches,40.3855796,-3.4102902,newdevelopment,1956.0,1,1,flat,loeches,flat,1,1
455000.0,chalet,236.0,4,3,el álamo,40.2256858,-3.9965534,good,1928.0,1,1,chalet,el álamo,alto,1,0
170000.0,countryhouse,180.0,5,1,fresnedillas de la oliva,40.4847797,-4.1695083,good,944.0,0,0,countryhouse,fresnedillas de la oliva,muy alto,1,0
373000.0,flat,112.0,3,2,alcalá de henares,40.50157,-3.34737,newdevelopment,3330.0,0,0,flat,el pilar - bripac,bajo,1,1
343000.0,flat,139.0,3,2,alcalá de henares,40.50157,-3.34737,newdevelopment,2468.0,0,0,flat,el pilar - bripac,flat,1,1
331000.0,penthouse,69.0,2,2,alcalá de henares,40.50157,-3.34737,newdevelopment,4797.0,0,0,flat,el pilar - bripac,flat,1,1
400000.0,flat,81.0,1,1,madrid,40.4196103,-3.7082553,good,4938.0,0,0,flat,palacio,mediano,1,1
525000.0,chalet,146.0,3,3,móstoles,40.3100881,-3.8519152,newdevelopment,3596.0,1,1,chalet,sur,alto,1,0
495000.0,flat,105.0,2,1,madrid,40.4078869,-3.7179215,good,4714.0,0,0,flat,imperial,bajo,1,0
123500.0,flat,76.0,3,1,griñón,40.2160277,-3.8533055,renew,1625.0,0,0,flat,griñón,intermedio,1,0
400000.0,duplex,198.0,4,2,san lorenzo de el escorial,40.5910614,-4.1358265,good,2020.0,1,1,flat,centro - casco histórico,intermedio,1,1
150000.0,chalet,105.0,3,2,san martín de valdeiglesias,40.3613979,-4.3958885,good,1429.0,0,0,chalet,san martín de valdeiglesias,alto,1,0
489385.0,flat,132.0,4,2,getafe,40.32136,-3.73514,newdevelopment,3707.0,1,1,flat,el bercial,mediano,1,1
110000.0,studio,57.0,0,1,las rozas de madrid,40.5259492,-3.8860825,good,1930.0,0,0,flat,pinar de las rozas,bajo,1,1
575000.0,flat,95.0,3,2,madrid,40.390345,-3.6954364,good,6053.0,0,0,flat,legazpi,intermedio,1,1
260000.0,chalet,53.0,2,1,manzanares el real,40.7270555,-3.8662192,good,4906.0,0,0,chalet,manzanares el real,alto,1,0
300000.0,chalet,297.0,3,3,casarrubuelos,40.1693351,-3.8327887,good,1010.0,1,1,chalet,casarrubuelos,alto,1,0
459000.0,chalet,298.0,7,3,valdemorillo,40.46299,-4.0919101,good,1540.0,1,1,chalet,cerro alarcón,alto,1,0
309000.0,flat,96.0,2,2,torrejón de ardoz,40.4577437,-3.4731151,good,3219.0,1,1,flat,noreste,intermedio,1,1
370000.0,chalet,278.0,4,2,alcalá de henares,40.4795767,-3.3596954,renew,1331.0,0,0,chalet,venecia - nueva alcalá,alto,1,0
400000.0,flat,89.0,3,1,madrid,40.4387976,-3.707661,good,4494.0,0,0,flat,arapiles,bajo,0,1
199000.0,flat,71.0,3,1,madrid,40.4963364,-3.6917713,renew,2803.0,0,0,flat,tres olivos - valverde,en,1,0
155000.0,chalet,108.0,3,2,gargantilla del lozoya,40.9817092,-3.6910263,good,1435.0,0,0,chalet,gargantilla del lozoya,alto,1,0
570000.0,chalet,185.0,5,3,pozuelo de alarcón,40.4463747,-3.7953525,renew,3081.0,1,1,chalet,zona estación,alto,1,0
489000.0,flat,79.0,1,1,madrid,40.4679522,-3.7084747,good,6190.0,1,1,flat,valdeacederas,mediano,1,1
380000.0,flat,80.0,2,1,ciudalcampo,40.6242412,-3.5878228,good,4750.0,0,0,flat,ciudalcampo,intermedio,1,1
210000.0,flat,110.0,4,2,parla,40.2402109,-3.7773901,good,1909.0,0,0,flat,el nido-las fuentes,intermedio,1,1
169000.0,flat,65.0,2,1,soto del real,40.7526166,-3.7833492,good,2600.0,0,0,flat,soto del real,intermedio,1,0
159000.0,flat,97.0,3,2,morata de tajuña,40.231311,-3.443418,good,1639.0,0,0,flat,morata de tajuña,intermedio,1,0
315000.0,flat,147.0,3,3,madrid,40.3744997,-3.7507498,good,2143.0,0,0,flat,buena vista,intermedio,0,0
273000.0,flat,161.0,4,3,leganés,40.3579794,-3.7808943,good,1696.0,0,0,flat,la fortuna,intermedio,0,1
240000.0,flat,42.0,2,1,madrid,40.3932501,-3.6945564,good,5714.0,0,0,flat,delicias,mediano,0,0
203873.0,flat,61.0,1,1,alcalá de henares,40.4947005,-3.3756968,newdevelopment,3342.0,1,1,flat,ensanche,intermedio,1,1
389000.0,chalet,192.0,4,3,la cabrera,40.8641818,-3.6154232,good,2026.0,0,0,chalet,la cabrera,alto,1,0
575000.0,flat,99.0,3,2,madrid,40.4268348,-3.6717304,good,5808.0,0,0,flat,goya,intermedio,0,1
340000.0,chalet,163.0,3,1,zarzalejo,40.5392369,-4.1589995,good,2086.0,1,1,chalet,zarzalejo,alto,1,0
185000.0,flat,67.0,1,1,madrid,40.4622745,-3.694299,good,2761.0,0,0,flat,cuzco-castillejos,mediano,1,1
269000.0,flat,82.0,2,1,collado villalba,40.6449658,-3.9908708,newdevelopment,3280.0,1,1,flat,villalba pueblo,intermedio,1,1
252000.0,flat,84.0,2,1,collado villalba,40.6449658,-3.9908708,newdevelopment,3000.0,1,1,flat,villalba pueblo,bajo,1,1
230000.0,flat,99.0,3,2,madrid,40.4128756,-3.7194249,good,2323.0,0,0,flat,imperial,mediano,1,1
129600.0,chalet,156.0,4,1,chinchón,40.1733792,-3.5434794,good,831.0,0,0,chalet,chinchón,alto,1,0
417500.0,flat,96.0,2,2,madrid,40.4641116,-3.7026881,newdevelopment,4349.0,0,0,flat,valdeacederas,intermedio,1,1
116900.0,countryhouse,173.0,2,3,san martín de valdeiglesias,40.3614841,-4.3970763,renew,676.0,0,0,countryhouse,san martín de valdeiglesias,muy alto,1,0
239200.0,chalet,224.0,4,1,daganzo de arriba,40.5485904,-3.4546692,renew,1068.0,0,0,chalet,daganzo de arriba,alto,1,0
480000.0,flat,113.0,2,2,madrid,40.5011349,-3.6725243,good,4248.0,1,1,flat,las tablas,intermedio,1,1
219500.0,chalet,243.0,4,1,san martín de la vega,40.2065484,-3.5699446,good,903.0,1,1,chalet,san martín de la vega,alto,1,0
170000.0,chalet,160.0,5,2,santa maría de la alameda,40.5673254,-4.2862556,renew,1063.0,0,0,chalet,santa maría de la alameda,alto,1,0
254000.0,flat,62.0,2,2,madrid,40.3930682,-3.7721042,good,4097.0,0,0,flat,campamento,bajo,1,1
123500.0,flat,86.0,3,1,griñón,40.2152909,-3.8549463,good,1436.0,0,0,flat,griñón,intermedio,1,0
350000.0,chalet,216.0,3,2,eurovillas,40.3605178,-3.2625105,good,1620.0,1,1,chalet,eurovillas,alto,1,0
420000.0,flat,68.0,1,1,madrid,40.4170559,-3.7107465,good,6176.0,0,0,flat,palacio,intermedio,1,1
128000.0,flat,50.0,1,1,velilla de san antonio,40.366701,-3.4885335,good,2560.0,0,0,flat,velilla de san antonio,bajo,1,0
431300.0,chalet,141.0,3,3,torrejón de ardoz,40.4405497,-3.4655461,newdevelopment,3059.0,0,0,chalet,suroeste,alto,1,0
434800.0,chalet,153.0,3,3,torrejón de ardoz,40.4405497,-3.4655461,newdevelopment,2842.0,0,0,chalet,suroeste,alto,1,0
361394.0,chalet,220.0,4,3,mejorada del campo,40.3916242,-3.4761469,newdevelopment,1643.0,1,1,chalet,mejorada del campo,alto,1,0
239500.0,chalet,180.0,3,3,valdemanco,40.8635418,-3.6754747,good,1331.0,1,1,chalet,valdemanco,alto,1,0
285000.0,chalet,243.0,5,2,robledo de chavela,40.4988964,-4.2351648,good,1173.0,1,1,chalet,robledo de chavela,alto,1,0
250000.0,duplex,130.0,3,3,brunete,40.4071057,-3.9959466,good,1923.0,0,0,flat,brunete,intermedio,1,0
349000.0,chalet,230.0,3,2,robledo de chavela,40.5118303,-4.2497813,good,1517.0,1,1,chalet,robledo de chavela,alto,1,0
450000.0,flat,72.0,1,1,madrid,40.4116067,-3.6996369,good,6250.0,0,0,flat,lavapiés-embajadores,intermedio,1,1
375000.0,flat,60.0,2,2,madrid,40.4220859,-3.7178421,good,6250.0,0,0,flat,argüelles,bajo,1,0
375000.0,chalet,160.0,4,2,alcalá de henares,40.4845591,-3.3637933,renew,2344.0,0,0,chalet,san isidro - los almendros,alto,1,0
447300.0,chalet,172.0,4,3,torrejón de ardoz,40.4405497,-3.4655461,newdevelopment,2601.0,0,0,chalet,suroeste,alto,1,0
432000.0,flat,145.0,4,2,coslada,40.4289017,-3.560373,good,2979.0,1,1,flat,el barral ferial,intermedio,1,1
150000.0,chalet,160.0,5,3,cadalso de los vidrios,40.3030167,-4.4451484,good,938.0,0,0,chalet,cadalso de los vidrios,alto,1,0
160000.0,flat,111.0,4,2,collado villalba,40.6283573,-4.0100787,renew,1441.0,0,0,flat,carlos ruiz,intermedio,1,0
460000.0,chalet,249.0,6,2,alcobendas,40.5485788,-3.6392625,renew,1847.0,0,0,chalet,ensanche,alto,1,0
145000.0,flat,96.0,3,2,miraflores de la sierra,40.811466,-3.7657501,good,1510.0,0,0,flat,miraflores de la sierra,intermedio,1,1
295000.0,chalet,185.0,5,3,arganda,40.303057,-3.4391828,good,1595.0,1,1,chalet,centro,alto,1,0
450000.0,flat,114.0,2,2,madrid,40.3899122,-3.7310929,newdevelopment,3947.0,1,1,flat,san isidro,bajo,1,1
355000.0,penthouse,79.0,1,1,madrid,40.3899122,-3.7310929,newdevelopment,4494.0,1,1,flat,san isidro,flat,1,1
495000.0,penthouse,117.0,2,1,madrid,40.3899122,-3.7310929,newdevelopment,4231.0,1,1,flat,san isidro,flat,1,1
450000.0,flat,112.0,2,2,madrid,40.3899122,-3.7310929,newdevelopment,4018.0,1,1,flat,san isidro,bajo,1,1
190000.0,chalet,188.0,4,3,ajalvir,40.5328604,-3.4807523,renew,1011.0,0,0,chalet,ajalvir,alto,1,0
568000.0,chalet,224.0,4,3,torrejón de ardoz,40.4421408,-3.4661213,newdevelopment,2536.0,1,1,chalet,suroeste,alto,1,0
560000.0,chalet,223.0,4,3,torrejón de ardoz,40.4421408,-3.4661213,newdevelopment,2511.0,1,1,chalet,suroeste,alto,1,0
535000.0,chalet,223.0,4,3,torrejón de ardoz,40.4424407,-3.4664105,newdevelopment,2399.0,1,1,chalet,suroeste,alto,1,0
585000.0,chalet,224.0,4,3,torrejón de ardoz,40.4421408,-3.4661213,newdevelopment,2612.0,1,1,chalet,suroeste,alto,1,0
150000.0,flat,40.0,1,1,madrid,40.4933525,-3.6973192,good,3750.0,0,0,flat,tres olivos - valverde,bajo,1,0
520000.0,penthouse,169.0,3,2,torrejón de ardoz,40.4611313,-3.4678987,newdevelopment,3077.0,1,1,flat,noreste,mediano,1,1
295000.0,duplex,114.0,3,2,leganés,40.3275613,-3.7614041,renew,2588.0,0,0,flat,santos,intermedio,1,1
114000.0,flat,74.0,3,1,valdemoro,40.194107,-3.684182,renew,1541.0,0,0,flat,brezo,intermedio,1,1
95000.0,duplex,56.0,2,1,madrid,40.3443328,-3.7078833,renew,1696.0,0,0,flat,villaverde alto,intermedio,1,1
97000.0,duplex,56.0,2,1,madrid,40.3470983,-3.7077455,renew,1732.0,0,0,flat,villaverde alto,intermedio,1,1
205500.0,flat,118.0,4,2,móstoles,40.3278324,-3.8591343,renew,1742.0,0,0,flat,centro,intermedio,1,1
149000.0,flat,59.0,1,1,madrid,40.4333485,-3.6443114,good,2525.0,0,0,flat,pueblo nuevo,bajo,1,0
310000.0,chalet,180.0,3,3,paracuellos de jarama,40.5039937,-3.5282849,renew,1722.0,0,0,chalet,casco urbano,alto,1,0
162000.0,penthouse,35.0,1,1,las rozas de madrid,40.4937733,-3.8761693,good,4629.0,0,0,flat,casco antiguo,intermedio,1,0
146770.0,flat,66.0,1,1,torres de la alameda,40.4033383,-3.3627796,newdevelopment,2224.0,1,1,flat,torres de la alameda,intermedio,1,1
162160.0,flat,66.0,1,1,torres de la alameda,40.4033383,-3.3627796,newdevelopment,2457.0,1,1,flat,torres de la alameda,bajo,1,1
399000.0,flat,180.0,3,2,madrid,40.4016269,-3.5583739,good,2217.0,1,0,flat,el cañaveral,bajo,1,1
354000.0,penthouse,124.0,3,2,madrid,40.3915306,-3.6702504,good,2855.0,0,0,flat,san diego,intermedio,1,1
311650.0,flat,145.0,3,2,getafe,40.3265128,-3.7237949,good,2149.0,1,1,flat,getafe norte,intermedio,1,1
255000.0,flat,95.0,4,2,getafe,40.3039342,-3.7286784,good,2684.0,0,0,flat,getafe centro,bajo,1,1
175000.0,flat,64.0,2,1,madrid,40.3737453,-3.6892784,good,2734.0,0,0,flat,san fermín,intermedio,1,0
480385.0,flat,132.0,4,2,getafe,40.32136,-3.73514,newdevelopment,3639.0,1,1,flat,el bercial,mediano,1,1
279900.0,duplex,64.0,1,1,madrid,40.4108206,-3.7038861,good,4373.0,0,0,flat,lavapiés-embajadores,intermedio,1,0
279000.0,penthouse,95.0,3,1,madrid,40.3973941,-3.7338055,good,2937.0,0,0,flat,san isidro,intermedio,1,1
295000.0,flat,45.0,1,1,madrid,40.4268259,-3.7054627,good,6556.0,0,0,flat,malasaña-universidad,intermedio,0,1
425000.0,flat,94.0,2,2,ciudalcampo,40.6230441,-3.5904294,good,4521.0,0,0,flat,ciudalcampo,bajo,1,0
393211.0,flat,114.0,3,2,leganés,40.338703,-3.783693,newdevelopment,3449.0,0,0,flat,poza del agua,flat,1,1
368495.0,flat,107.0,3,2,leganés,40.338703,-3.783693,newdevelopment,3444.0,0,0,flat,poza del agua,flat,1,1
255000.0,flat,126.0,2,2,valdemoro,40.1950817,-3.6958604,newdevelopment,2024.0,1,1,flat,hospital,bajo,1,1
280251.0,flat,99.0,3,2,cobeña,40.5705947,-3.5113472,newdevelopment,2831.0,1,1,flat,cobeña,intermedio,1,1
226257.0,flat,77.0,2,2,cobeña,40.5705947,-3.5113472,newdevelopment,2938.0,1,1,flat,cobeña,intermedio,1,1
317673.0,flat,114.0,4,2,cobeña,40.5705947,-3.5113472,newdevelopment,2787.0,1,1,flat,cobeña,intermedio,1,1
320000.0,chalet,172.0,4,2,valdemorillo,40.502011,-4.066036,good,1860.0,1,1,chalet,valdemorillo pueblo,alto,1,0
225000.0,duplex,100.0,3,2,becerril de la sierra,40.7146215,-3.9940197,good,2250.0,0,0,flat,becerril de la sierra,intermedio,1,0
99000.0,chalet,162.0,2,1,colmenar de oreja,40.1069953,-3.3855746,good,611.0,0,0,chalet,colmenar de oreja,alto,1,0
66000.0,flat,34.0,1,1,madrid,40.3959303,-3.6580551,good,1941.0,0,0,flat,numancia,bajo,0,0
315000.0,flat,201.0,3,2,las rozas de madrid,40.488986,-3.8663946,good,1567.0,1,1,flat,alto de la jabonería,intermedio,1,1
199900.0,chalet,100.0,3,3,santorcaz,40.4754473,-3.2295371,newdevelopment,1999.0,1,1,chalet,santorcaz,alto,1,0
280000.0,flat,59.0,1,1,madrid,40.4397243,-3.639257,good,4746.0,1,1,flat,quintana,bajo,1,0
529000.0,flat,213.0,4,2,alcorcón,40.354664,-3.8031737,good,2484.0,1,1,flat,valderas - los castillos,bajo,1,1
304000.0,flat,75.0,2,2,madrid,40.3729712,-3.7504688,newdevelopment,4053.0,1,1,flat,buena vista,bajo,1,1
500000.0,penthouse,80.0,1,1,madrid,40.4401275,-3.6741855,good,6250.0,0,0,flat,prosperidad,mediano,1,1
400000.0,chalet,230.0,3,2,brunete,40.4039955,-3.997631,good,1739.0,0,0,chalet,brunete,alto,1,0
183000.0,flat,66.0,2,2,parla,40.2380582,-3.7647008,newdevelopment,2773.0,1,1,flat,calle pinto-san roque,en,1,1
235000.0,flat,103.0,3,2,parla,40.2380582,-3.7647008,newdevelopment,2282.0,1,1,flat,calle pinto-san roque,intermedio,1,1
219000.0,flat,87.0,3,2,parla,40.2380582,-3.7647008,newdevelopment,2517.0,1,1,flat,calle pinto-san roque,intermedio,1,1
135000.0,flat,47.0,2,1,madrid,40.3869561,-3.667805,good,2872.0,0,0,flat,san diego,intermedio,1,0
175508.0,flat,97.0,1,1,madrid,40.38231,-3.62587,good,1809.0,1,1,flat,casco histórico de vallecas,en,1,1
229000.0,flat,101.0,3,1,alcobendas,40.5454938,-3.6371305,good,2267.0,0,0,flat,alcobendas centro,flat,1,1
375000.0,duplex,93.0,1,1,madrid,40.4292986,-3.6909748,good,4032.0,0,0,flat,almagro,bajo,0,1
195000.0,flat,69.0,1,1,madrid,40.3728262,-3.7666004,good,2826.0,1,1,flat,pau de carabanchel,intermedio,1,1
515000.0,duplex,90.0,2,1,madrid,40.4442605,-3.6951607,good,5722.0,0,0,flat,nuevos ministerios-ríos rosas,intermedio,1,0
577100.0,chalet,284.0,3,3,rivas-vaciamadrid,40.3426658,-3.5162608,newdevelopment,2032.0,1,1,chalet,rivas futura,alto,1,0
490000.0,chalet,149.0,3,3,móstoles,40.3049493,-3.8638148,newdevelopment,3289.0,1,1,chalet,sur,alto,1,0
560000.0,chalet,226.0,4,3,móstoles,40.3049493,-3.8638148,newdevelopment,2478.0,1,1,chalet,sur,alto,1,0
530000.0,chalet,164.0,4,3,móstoles,40.3049493,-3.8638148,newdevelopment,3232.0,1,1,chalet,sur,alto,1,0
237859.0,flat,94.0,3,2,parla,40.2254525,-3.7519137,newdevelopment,2530.0,1,1,flat,parla este,intermedio,1,1
200000.0,chalet,121.0,3,1,villa del prado,40.2727415,-4.3527909,good,1653.0,1,1,chalet,villa del prado,alto,1,0
380000.0,flat,85.0,2,1,madrid,40.415004,-3.7023697,good,4471.0,0,0,flat,sol,mediano,1,1
398000.0,chalet,233.0,5,2,valdemorillo,40.4660994,-4.0710918,good,1708.0,1,1,chalet,cerro alarcón,alto,1,0
84950.0,flat,38.0,1,1,madrid,40.3518738,-3.6829442,good,2236.0,0,0,flat,butarque,bajo,0,0
230000.0,flat,85.0,2,1,alcobendas,40.5417008,-3.643365,good,2706.0,0,0,flat,alcobendas centro,bajo,1,0
336000.0,chalet,78.0,5,1,madrid,40.4417254,-3.5672084,renew,4308.0,0,0,chalet,rejas,alto,1,0
220000.0,duplex,120.0,2,2,serranillos del valle,40.2038406,-3.8834116,good,1833.0,0,0,flat,serranillos del valle,intermedio,1,0
192000.0,flat,54.0,1,1,madrid,40.391869,-3.7367838,good,3556.0,0,0,flat,san isidro,intermedio,0,1
290000.0,flat,83.0,2,1,alcalá de henares,40.485683,-3.3670891,good,3494.0,1,1,flat,san isidro - los almendros,bajo,1,1
470000.0,flat,112.0,2,2,madrid,40.496402,-3.652362,good,4196.0,1,1,flat,sanchinarro,intermedio,1,1
440000.0,flat,85.0,2,1,madrid,40.4264591,-3.6671299,renew,5176.0,0,0,flat,goya,en,0,1
440000.0,duplex,270.0,5,3,alcorcón,40.3510469,-3.8306934,good,1630.0,1,1,flat,zona renfe,intermedio,1,1
369000.0,chalet,171.0,4,3,cerceda,40.7015771,-3.9335054,good,2158.0,0,0,chalet,cerceda,alto,1,0
360000.0,chalet,216.0,4,3,san martín de valdeiglesias,40.3995253,-4.3898716,good,1667.0,1,1,chalet,san martín de valdeiglesias,alto,1,0
350000.0,penthouse,143.0,3,2,fuenlabrada,40.2807803,-3.7956297,newdevelopment,2448.0,1,1,flat,centro,intermedio,1,1
320000.0,flat,131.0,3,2,fuenlabrada,40.2807803,-3.7956297,newdevelopment,2443.0,1,1,flat,centro,bajo,1,1
250000.0,flat,101.0,3,2,fuenlabrada,40.2807803,-3.7956297,newdevelopment,2475.0,1,1,flat,centro,intermedio,1,1
250000.0,flat,98.0,2,2,fuenlabrada,40.2807803,-3.7956297,newdevelopment,2551.0,1,1,flat,centro,bajo,1,1
340000.0,penthouse,148.0,3,2,fuenlabrada,40.2807803,-3.7956297,newdevelopment,2297.0,1,1,flat,centro,intermedio,1,1
315000.0,penthouse,112.0,2,1,fuenlabrada,40.2807803,-3.7956297,newdevelopment,2813.0,1,1,flat,centro,intermedio,1,1
178000.0,flat,57.0,1,1,madrid,40.4879942,-3.6654297,good,3123.0,0,0,flat,virgen del cortijo - manoteras,flat,0,1
250000.0,chalet,200.0,5,1,fuente el saz de jarama,40.6352139,-3.5107894,good,1250.0,1,1,chalet,fuente el saz de jarama,alto,1,0
280500.0,flat,68.0,1,1,madrid,40.4229252,-3.7049664,good,4125.0,0,0,flat,malasaña-universidad,bajo,0,1
285000.0,flat,89.0,3,1,madrid,40.4039571,-3.6519289,good,3202.0,0,0,flat,fontarrón,intermedio,1,1
389000.0,chalet,201.0,3,3,galapagar,40.5795925,-4.0128566,good,1935.0,1,1,chalet,el praderón,alto,1,0
339000.0,flat,113.0,3,2,san sebastián de los reyes,40.5535727,-3.6295003,good,3000.0,0,0,flat,praderón,bajo,1,1
336500.0,flat,194.0,3,2,valdemoro,40.1965789,-3.6709769,newdevelopment,1735.0,1,1,flat,zona estación,bajo,1,1
271000.0,flat,197.0,2,2,valdemoro,40.1965789,-3.6709769,newdevelopment,1376.0,1,1,flat,zona estación,bajo,1,1
185000.0,penthouse,40.0,1,1,madrid,40.4283787,-3.7078519,good,4625.0,0,0,flat,malasaña-universidad,intermedio,1,0
123500.0,flat,86.0,3,1,griñón,40.2156918,-3.8546313,renew,1436.0,0,0,flat,griñón,intermedio,1,0
475000.0,flat,78.0,1,1,madrid,40.4682534,-3.7068063,good,6090.0,1,1,flat,valdeacederas,mediano,1,1
335000.0,flat,62.0,2,2,alcobendas,40.5482793,-3.6369892,newdevelopment,5403.0,1,0,flat,ensanche,intermedio,1,1
315000.0,flat,71.0,2,2,alcobendas,40.5482793,-3.6369892,newdevelopment,4437.0,1,0,flat,ensanche,intermedio,1,1
133000.0,flat,30.0,1,1,madrid,40.4503263,-3.7082059,renew,4433.0,0,0,flat,bellas vistas,bajo,1,0
266000.0,flat,170.0,2,2,valdemoro,40.1965789,-3.6709769,newdevelopment,1565.0,1,1,flat,zona estación,bajo,1,1
273000.0,flat,113.0,3,2,valdemoro,40.1965789,-3.6709769,newdevelopment,2416.0,1,1,flat,zona estación,intermedio,1,1
264500.0,flat,125.0,3,2,valdemoro,40.1965789,-3.6709769,newdevelopment,2116.0,1,1,flat,zona estación,intermedio,1,1
275500.0,flat,113.0,3,2,valdemoro,40.1965789,-3.6709769,newdevelopment,2438.0,1,1,flat,zona estación,mediano,1,1
265000.0,flat,113.0,3,2,valdemoro,40.1965789,-3.6709769,newdevelopment,2345.0,1,1,flat,zona estación,intermedio,1,1
272000.0,flat,125.0,3,2,valdemoro,40.1965789,-3.6709769,newdevelopment,2176.0,1,1,flat,zona estación,intermedio,1,1
198000.0,countryhouse,103.0,3,1,el molar,40.7147677,-3.5471028,good,1922.0,1,1,countryhouse,el molar,bajo,1,0
198000.0,chalet,70.0,3,1,alcobendas,40.5440742,-3.6354121,renew,2829.0,0,0,chalet,alcobendas centro,alto,1,0
168000.0,flat,132.0,3,2,loeches,40.3833982,-3.4111329,good,1273.0,1,1,flat,loeches,intermedio,1,1
299990.0,chalet,170.0,4,2,meco,40.5496304,-3.3244255,good,1765.0,0,0,chalet,meco,alto,1,0
489600.0,flat,89.0,2,2,las rozas de madrid,40.4934447,-3.8691457,newdevelopment,5501.0,1,1,flat,zona estación,bajo,1,1
491400.0,flat,88.0,2,2,las rozas de madrid,40.4934447,-3.8691457,newdevelopment,5584.0,1,1,flat,zona estación,bajo,1,1
315900.0,chalet,119.0,3,2,camarma de esteruelas,40.5440284,-3.3792433,newdevelopment,2655.0,0,0,chalet,camarma de esteruelas,alto,1,0
460000.0,penthouse,138.0,2,2,madrid,40.3694193,-3.5852243,newdevelopment,3333.0,1,1,flat,los berrocales,mediano,1,1
235000.0,flat,35.0,1,1,madrid,40.4098674,-3.6949137,good,6714.0,0,0,flat,huertas-cortes,intermedio,0,0
291000.0,flat,70.0,2,2,villanueva de la cañada,40.4470906,-3.9982892,good,4157.0,1,1,flat,villanueva de la cañada,intermedio,1,1
295000.0,chalet,148.0,4,2,la cabrera,40.8652951,-3.617036,good,1993.0,0,0,chalet,la cabrera,alto,1,0
189500.0,flat,64.0,2,1,coslada,40.4253995,-3.5368029,good,2961.0,0,0,flat,valleaguado - la cañada,intermedio,1,0
239900.0,flat,70.0,3,1,madrid,40.4032534,-3.7393518,good,3427.0,0,0,flat,los cármenes,bajo,1,0
375000.0,chalet,264.0,7,2,fuente el saz de jarama,40.6325662,-3.510972,renew,1420.0,1,1,chalet,fuente el saz de jarama,alto,1,0
360000.0,flat,82.0,2,2,madrid,40.3969274,-3.6717129,good,4390.0,1,0,flat,adelfas,bajo,1,1
590000.0,flat,148.0,3,1,madrid,40.4096613,-3.7049042,renew,3986.0,0,0,flat,lavapiés-embajadores,intermedio,1,0
100000.0,duplex,80.0,0,1,camarma de esteruelas,40.5301396,-3.3874345,good,1250.0,1,1,flat,camarma de esteruelas,intermedio,1,0
370000.0,chalet,220.0,3,2,alcalá de henares,40.5077827,-3.3717378,good,1682.0,0,0,chalet,espartales,alto,1,0
232000.0,flat,88.0,2,2,madrid,40.3465739,-3.6950631,newdevelopment,2636.0,1,1,flat,los ángeles,mediano,1,1
277000.0,flat,101.0,3,2,madrid,40.3465739,-3.6950631,newdevelopment,2743.0,1,1,flat,los ángeles,mediano,1,1
173000.0,flat,51.0,1,1,madrid,40.3465739,-3.6950631,newdevelopment,3392.0,1,1,flat,los ángeles,flat,1,1
286000.0,flat,109.0,3,2,madrid,40.3465739,-3.6950631,newdevelopment,2624.0,1,1,flat,los ángeles,mediano,1,1
241000.0,flat,91.0,2,2,madrid,40.3465739,-3.6950631,newdevelopment,2648.0,1,1,flat,los ángeles,flat,1,1
350000.0,countryhouse,292.0,2,2,patones,40.867955,-3.4943366,good,1199.0,0,0,countryhouse,patones,bajo,1,0
313925.0,flat,122.0,3,2,alcalá de henares,40.509816,-3.3632567,newdevelopment,2573.0,0,0,flat,espartales,bajo,1,1
267919.0,flat,101.0,2,2,alcalá de henares,40.509816,-3.3632567,newdevelopment,2653.0,0,0,flat,espartales,bajo,1,1
309866.0,duplex,173.0,2,2,alcalá de henares,40.509816,-3.3632567,newdevelopment,1791.0,0,0,flat,espartales,flat,1,1
307159.0,duplex,163.0,2,2,alcalá de henares,40.509816,-3.3632567,newdevelopment,1884.0,0,0,flat,espartales,flat,1,1
439766.0,penthouse,224.0,3,2,alcalá de henares,40.509816,-3.3632567,newdevelopment,1963.0,0,0,flat,espartales,flat,1,1
305806.0,duplex,164.0,2,2,alcalá de henares,40.509816,-3.3632567,newdevelopment,1865.0,0,0,flat,espartales,flat,1,1
308513.0,duplex,173.0,2,2,alcalá de henares,40.509816,-3.3632567,newdevelopment,1783.0,0,0,flat,espartales,flat,1,1
450000.0,duplex,90.0,0,1,madrid,40.4377776,-3.6766024,good,5000.0,1,1,flat,guindalera,bajo,1,1
295000.0,flat,78.0,2,1,madrid,40.4298137,-3.6394929,good,3782.0,0,0,flat,pueblo nuevo,intermedio,1,1
670000.0,flat,146.0,5,2,madrid,40.4302715,-3.7198406,renew,4589.0,0,0,flat,argüelles,intermedio,0,1
160000.0,flat,89.0,1,1,colmenar viejo,40.6583447,-3.7685413,good,1798.0,1,1,flat,centro,intermedio,1,0
145000.0,flat,64.0,2,1,madrid,40.4060433,-3.7514151,renew,2266.0,0,0,flat,lucero,bajo,1,1
315000.0,chalet,120.0,0,0,hoyo de manzanares,40.6277299,-3.90974,renew,2625.0,0,0,chalet,hoyo de manzanares,alto,1,0
190744.0,flat,84.0,2,2,madrid,40.3722948,-3.5855796,newdevelopment,2271.0,1,1,flat,los berrocales,intermedio,1,1
226162.0,flat,104.0,3,2,madrid,40.3731806,-3.5846999,newdevelopment,2175.0,1,1,flat,los berrocales,intermedio,1,1
225626.0,flat,104.0,3,2,madrid,40.3720324,-3.585244,newdevelopment,2169.0,1,1,flat,los berrocales,intermedio,1,1
184290.0,flat,63.0,2,2,madrid,40.3723825,-3.5841244,newdevelopment,2925.0,1,1,flat,los berrocales,intermedio,1,1
176489.0,flat,59.0,2,2,madrid,40.3723825,-3.5841244,newdevelopment,2991.0,1,1,flat,los berrocales,flat,1,1
179097.0,flat,80.0,2,2,madrid,40.3695441,-3.5863665,newdevelopment,2239.0,0,0,flat,los berrocales,intermedio,1,1
179097.0,flat,80.0,2,1,madrid,40.3690907,-3.5840271,newdevelopment,2239.0,0,0,flat,los berrocales,intermedio,1,1
240000.0,chalet,226.0,4,2,fuente el saz de jarama,40.6448742,-3.4991702,good,1062.0,0,0,chalet,fuente el saz de jarama,alto,1,0
355000.0,chalet,246.0,4,3,serranillos del valle,40.2046298,-3.8724392,good,1443.0,1,1,chalet,serranillos del valle,alto,1,0
291000.0,flat,70.0,2,2,villanueva de la cañada,40.4448154,-4.0026636,good,4157.0,1,1,flat,villanueva de la cañada,intermedio,1,1
73740.0,flat,27.0,1,1,madrid,40.3751608,-3.7489799,good,2731.0,0,0,flat,puerta bonita,bajo,0,0
225000.0,flat,130.0,3,2,daganzo de arriba,40.5444156,-3.4582808,good,1731.0,1,1,flat,daganzo de arriba,intermedio,1,1
415000.0,flat,80.0,3,2,madrid,40.4229116,-3.6643489,renew,5188.0,0,0,flat,fuente del berro,intermedio,1,1
141900.0,flat,50.0,2,1,madrid,40.4340396,-3.6410885,good,2838.0,0,0,flat,pueblo nuevo,bajo,1,0
385000.0,flat,168.0,3,3,alcobendas,40.5417161,-3.6331824,good,2292.0,0,0,flat,alcobendas centro,intermedio,1,1
525000.0,flat,78.0,1,1,madrid,40.4684974,-3.7103338,good,6731.0,1,1,flat,valdeacederas,mediano,1,1
258000.0,chalet,150.0,4,2,eurovillas,40.3587872,-3.2682666,good,1720.0,0,0,chalet,eurovillas,alto,1,0
380000.0,chalet,213.0,5,2,torrelaguna,40.8295687,-3.5401819,good,1784.0,1,1,chalet,torrelaguna,alto,1,0
155000.0,flat,65.0,1,1,torrejón de ardoz,40.4604183,-3.4752235,good,2385.0,0,0,flat,noroeste,intermedio,1,1
279000.0,flat,112.0,4,2,madrid,40.3787417,-3.7511932,renew,2491.0,0,0,flat,vista alegre,intermedio,1,1
360000.0,chalet,140.0,3,2,quijorna,40.4248367,-4.0547177,newdevelopment,2571.0,1,1,chalet,quijorna,alto,1,0
385000.0,chalet,180.0,4,3,quijorna,40.4248367,-4.0547177,newdevelopment,2139.0,1,1,chalet,quijorna,alto,1,0
400000.0,chalet,180.0,4,3,quijorna,40.4248367,-4.0547177,newdevelopment,2222.0,1,1,chalet,quijorna,alto,1,0
375000.0,chalet,140.0,3,2,quijorna,40.4248367,-4.0547177,newdevelopment,2679.0,1,1,chalet,quijorna,alto,1,0
360000.0,chalet,240.0,5,3,moraleja de enmedio,40.2617797,-3.8656939,good,1500.0,1,1,chalet,moraleja de enmedio,alto,1,0
560000.0,chalet,200.0,4,3,guadalix de la sierra,40.782498,-3.7010237,good,2800.0,0,0,chalet,guadalix de la sierra,alto,1,0
320000.0,duplex,66.0,1,2,madrid,40.4324027,-3.701746,good,4848.0,0,0,flat,trafalgar,st,0,1
390000.0,flat,118.0,3,2,colmenar viejo,40.6574531,-3.7589317,good,3305.0,1,1,flat,las vegas - el pozanco - adelfillas,intermedio,1,1
395000.0,chalet,230.0,5,3,colmenar viejo,40.6688315,-3.7818467,good,1717.0,1,1,chalet,fuente santa,alto,1,0
55000.0,chalet,105.0,3,2,cadalso de los vidrios,40.2991389,-4.4416353,good,524.0,0,0,chalet,cadalso de los vidrios,alto,1,0
55000.0,chalet,105.0,3,3,cadalso de los vidrios,40.3005756,-4.4417944,good,524.0,0,0,chalet,cadalso de los vidrios,alto,1,0
120000.0,flat,62.0,4,1,madrid,40.3432553,-3.6893253,good,1935.0,0,0,flat,san cristóbal,intermedio,1,0
191000.0,flat,122.0,4,1,valdemoro,40.1904355,-3.6862164,good,1566.0,0,0,flat,centro,intermedio,1,1
199000.0,chalet,53.0,4,1,alcobendas,40.5421233,-3.6354445,renew,3755.0,0,0,chalet,alcobendas centro,alto,1,0
265000.0,flat,100.0,3,2,leganés,40.3225971,-3.7620095,good,2650.0,0,0,flat,derechos humanos,bajo,1,1
215000.0,flat,49.0,1,1,madrid,40.4091448,-3.701492,good,4388.0,0,0,flat,lavapiés-embajadores,bajo,1,0
184000.0,flat,100.0,3,2,arganda,40.3049436,-3.4399152,good,1840.0,0,0,flat,centro,intermedio,1,1
198000.0,chalet,141.0,4,2,arganda,40.3034859,-3.4373346,renew,1404.0,0,0,chalet,centro,alto,1,0
424300.0,chalet,142.0,3,3,torrejón de ardoz,40.4405497,-3.4655461,newdevelopment,2988.0,0,0,chalet,suroeste,alto,1,0
323000.0,duplex,138.0,3,2,madrid,40.3428681,-3.675457,good,2341.0,1,1,flat,butarque,mediano,0,1
369900.0,chalet,120.0,4,2,camarma de esteruelas,40.5440284,-3.3792433,newdevelopment,3083.0,0,0,chalet,camarma de esteruelas,alto,1,0
334500.0,chalet,190.0,4,3,parla,40.2354673,-3.7720105,good,1761.0,1,1,chalet,la ermita,alto,1,0
554000.0,chalet,233.0,4,3,navacerrada,40.7301699,-4.0094349,newdevelopment,2378.0,1,1,chalet,navacerrada,alto,1,0
292000.0,chalet,253.0,3,2,robledo de chavela,40.4979602,-4.230532,good,1154.0,0,0,chalet,robledo de chavela,alto,1,0
194000.0,studio,50.0,0,1,madrid,40.4107895,-3.6984852,good,3880.0,0,0,flat,lavapiés-embajadores,flat,0,0
319900.0,chalet,139.0,3,1,olmeda de las fuentes,40.3697664,-3.2201204,good,2301.0,0,0,chalet,olmeda de las fuentes,alto,1,0
389000.0,chalet,201.0,3,3,galapagar,40.5822008,-4.0158782,good,1935.0,1,1,chalet,el praderón,alto,1,0
378643.0,flat,106.0,2,1,san sebastián de los reyes,40.5493391,-3.6367774,newdevelopment,3572.0,1,1,flat,sta. bárbara-la zaporra,bajo,1,1
428257.0,flat,108.0,2,1,san sebastián de los reyes,40.550527,-3.6388844,newdevelopment,3965.0,1,1,flat,sta. bárbara-la zaporra,bajo,1,1
109000.0,flat,66.0,3,1,parla,40.2385486,-3.7653329,good,1652.0,0,0,flat,calle pinto-san roque,intermedio,1,0
259000.0,chalet,140.0,3,1,lozoyuela-navas-sieteiglesias,40.9300269,-3.624864,good,1850.0,0,0,chalet,lozoyuela-navas-sieteiglesias,alto,1,0
450000.0,chalet,200.0,4,3,collado villalba,40.6321132,-4.0197408,good,2250.0,1,1,chalet,los negrales,alto,1,0
195000.0,flat,140.0,3,3,madrid,40.3851113,-3.6698905,good,1393.0,0,0,flat,san diego,bajo,1,0
150000.0,duplex,90.0,2,2,corpa,40.4247648,-3.264868,good,1667.0,1,1,flat,corpa,intermedio,1,0
500000.0,flat,110.0,3,2,madrid,40.4182333,-3.7089139,good,4545.0,0,0,flat,palacio,intermedio,1,1
407000.0,flat,80.0,2,2,madrid,40.4635779,-3.5825394,newdevelopment,5088.0,1,1,flat,alameda de osuna,intermedio,1,1
559900.0,chalet,230.0,4,3,villaviciosa de odón,40.3549208,-3.8857786,good,2434.0,1,1,chalet,castillo - campodón,alto,1,0
189000.0,flat,78.0,3,1,madrid,40.3691379,-3.7538876,good,2423.0,0,0,flat,buena vista,intermedio,1,0
460000.0,chalet,188.0,3,3,paracuellos de jarama,40.5280091,-3.5450254,good,2447.0,0,0,chalet,altos de jarama,alto,1,0
180000.0,flat,78.0,3,1,san sebastián de los reyes,40.5449635,-3.6316037,good,2308.0,0,0,flat,centro urbano,intermedio,1,0
206000.0,duplex,125.0,3,2,cubas de la sagra,40.1928889,-3.8416375,good,1648.0,1,1,flat,cubas de la sagra,intermedio,1,0
364000.0,chalet,212.0,2,2,fuente el saz de jarama,40.6380943,-3.5109326,good,1717.0,0,0,chalet,fuente el saz de jarama,alto,1,0
155000.0,flat,77.0,3,1,collado villalba,40.6325583,-4.0127114,good,2013.0,0,0,flat,los negrales,bajo,1,0
279000.0,flat,81.0,3,2,getafe,40.302666,-3.7247041,good,3444.0,1,1,flat,getafe centro,intermedio,1,1
340000.0,chalet,173.0,3,3,valdemoro,40.1837948,-3.6737077,good,1965.0,0,0,chalet,altos del olivar - el caracol,alto,1,0
287000.0,flat,128.0,3,2,villalbilla,40.4434915,-3.3625322,newdevelopment,2242.0,0,0,flat,villalbilla,bajo,1,1
246000.0,flat,114.0,3,2,villalbilla,40.4434915,-3.3625322,newdevelopment,2158.0,0,0,flat,villalbilla,intermedio,1,1
241000.0,flat,128.0,3,2,villalbilla,40.4434915,-3.3625322,newdevelopment,1883.0,0,0,flat,villalbilla,intermedio,1,1
282000.0,flat,114.0,3,2,villalbilla,40.4434915,-3.3625322,newdevelopment,2474.0,0,0,flat,villalbilla,bajo,1,1
279000.0,flat,114.0,3,2,villalbilla,40.4434915,-3.3625322,newdevelopment,2447.0,0,0,flat,villalbilla,bajo,1,1
297000.0,penthouse,101.0,3,2,villalbilla,40.4434915,-3.3625322,newdevelopment,2941.0,0,0,flat,villalbilla,flat,1,1
251000.0,penthouse,90.0,2,2,villalbilla,40.4434915,-3.3625322,newdevelopment,2789.0,0,0,flat,villalbilla,flat,1,1
340000.0,penthouse,60.0,1,1,madrid,40.4518745,-3.5953893,good,5667.0,1,1,flat,alameda de osuna,intermedio,1,1
93700.0,flat,68.0,3,1,madrid,40.3770927,-3.7392896,good,1378.0,0,0,flat,puerta bonita,flat,0,0
125100.0,flat,75.0,3,1,velilla de san antonio,40.3728801,-3.4879335,good,1668.0,0,0,flat,velilla de san antonio,flat,0,0
374000.0,chalet,196.0,4,3,mejorada del campo,40.3992482,-3.477091,newdevelopment,1908.0,1,1,chalet,mejorada del campo,alto,1,0
575700.0,chalet,260.0,4,3,colmenar viejo,40.6780625,-3.7770625,newdevelopment,2214.0,1,1,chalet,cerca tejera,alto,1,0
180000.0,flat,95.0,3,1,madrid,40.3780188,-3.7756561,renew,1895.0,0,0,flat,águilas,intermedio,1,1
230000.0,studio,61.0,0,1,madrid,40.4376255,-3.624256,good,3770.0,0,0,flat,simancas,intermedio,1,1
75000.0,chalet,90.0,2,1,arganda,40.2984899,-3.4436345,renew,833.0,0,0,chalet,centro,alto,1,0
361000.0,penthouse,84.0,1,1,madrid,40.4360473,-3.6395842,newdevelopment,4298.0,0,0,flat,pueblo nuevo,intermedio,1,1
458000.0,flat,103.0,2,1,madrid,40.4360473,-3.6395842,newdevelopment,4447.0,0,0,flat,pueblo nuevo,intermedio,1,1
381000.0,penthouse,88.0,1,1,madrid,40.4360473,-3.6395842,newdevelopment,4330.0,0,0,flat,pueblo nuevo,intermedio,1,1
458000.0,penthouse,106.0,2,1,madrid,40.4360473,-3.6395842,newdevelopment,4321.0,0,0,flat,pueblo nuevo,intermedio,1,1
463000.0,penthouse,108.0,2,2,madrid,40.4360473,-3.6395842,newdevelopment,4287.0,0,0,flat,pueblo nuevo,intermedio,1,1
407000.0,flat,89.0,2,1,madrid,40.4360473,-3.6395842,newdevelopment,4573.0,0,0,flat,pueblo nuevo,intermedio,1,1
115000.0,flat,57.0,1,1,los santos de la humosa,40.502377,-3.2575932,good,2018.0,1,1,flat,los santos de la humosa,bajo,1,0
144000.0,flat,39.0,1,1,madrid,40.391647,-3.7251608,good,3692.0,0,0,flat,opañel,bajo,0,0
152260.0,flat,82.0,3,1,fuenlabrada,40.2885935,-3.8012473,renew,1857.0,0,0,flat,la serna,intermedio,1,1
229000.0,flat,74.0,3,1,majadahonda,40.4730401,-3.8738641,good,3095.0,0,0,flat,casco antiguo,intermedio,0,0
385000.0,flat,152.0,3,2,san sebastián de los reyes,40.564641,-3.6260942,good,2533.0,0,0,flat,los arroyos,intermedio,0,1
173500.0,flat,82.0,3,1,alcorcón,40.3493267,-3.832396,good,2116.0,0,0,flat,zona renfe,intermedio,0,1
353000.0,flat,140.0,4,3,getafe,40.3239742,-3.7348856,good,2521.0,0,0,flat,el bercial,mediano,0,1
298000.0,flat,99.0,3,2,madrid,40.4433551,-3.6525327,good,3010.0,0,0,flat,san pascual,mediano,1,1
261000.0,flat,58.0,1,1,madrid,40.4233218,-3.6034132,good,4500.0,0,0,flat,rosas,intermedio,0,0
278500.0,flat,58.0,1,1,madrid,40.4240321,-3.6032674,good,4802.0,0,0,flat,rosas,intermedio,0,0
275000.0,flat,57.0,1,1,madrid,40.4254804,-3.6036096,good,4825.0,0,0,flat,rosas,intermedio,0,0
92500.0,flat,43.0,2,1,alcalá de henares,40.4714871,-3.3779514,good,2151.0,0,0,flat,reyes católicos,bajo,0,0
134500.0,flat,70.0,3,1,alcorcón,40.3469373,-3.8278582,good,1921.0,0,0,flat,casco antiguo,intermedio,0,0
133500.0,flat,71.0,2,1,aranjuez,40.030328,-3.5991316,good,1880.0,0,0,flat,centro,intermedio,0,1
380000.0,chalet,280.0,7,3,arganda,40.3013389,-3.438549,good,1357.0,0,0,chalet,centro,alto,1,0
139000.0,flat,76.0,3,1,madrid,40.3836797,-3.6689063,renew,1829.0,0,0,flat,entrevías,intermedio,1,0
84000.0,flat,64.0,3,1,parla,40.2408515,-3.763369,good,1313.0,0,0,flat,villayuventus-renfe,intermedio,0,0
140000.0,flat,65.0,3,1,getafe,40.3115292,-3.7240851,good,2154.0,0,0,flat,universidad,intermedio,1,0
196800.0,flat,88.0,2,2,arganda,40.30159,-3.45007,newdevelopment,2236.0,1,1,flat,centro,bajo,1,1
222700.0,flat,111.0,3,2,arganda,40.30159,-3.45007,newdevelopment,2006.0,1,1,flat,centro,bajo,1,1
197800.0,flat,89.0,2,2,arganda,40.30159,-3.45007,newdevelopment,2222.0,1,1,flat,centro,intermedio,1,1
203900.0,flat,92.0,3,2,arganda,40.30159,-3.45007,newdevelopment,2216.0,1,1,flat,centro,intermedio,1,1
208000.0,flat,95.0,3,2,arganda,40.30159,-3.45007,newdevelopment,2189.0,1,1,flat,centro,bajo,1,1
75000.0,flat,52.0,2,1,madrid,40.3903673,-3.6626988,good,1442.0,0,0,flat,palomeras bajas,intermedio,0,0
545000.0,penthouse,149.0,3,2,madrid,40.3694193,-3.5852243,newdevelopment,3658.0,1,1,flat,los berrocales,mediano,1,1
230000.0,flat,99.0,3,2,torrejón de ardoz,40.4616981,-3.457921,renew,2323.0,0,0,flat,noreste,flat,1,1
327000.0,flat,147.0,3,2,san sebastián de los reyes,40.5489154,-3.6371573,good,2224.0,1,1,flat,sta. bárbara-la zaporra,intermedio,1,0
319700.0,flat,73.0,2,2,móstoles,40.3293178,-3.8716856,good,4379.0,1,1,flat,norte - universidad,intermedio,1,1
335000.0,flat,120.0,3,3,madrid,40.4014407,-3.6069679,good,2792.0,1,1,flat,casco histórico de vicálvaro,bajo,1,0
478000.0,chalet,136.0,3,3,móstoles,40.3100881,-3.8519152,newdevelopment,3515.0,1,1,chalet,sur,alto,1,0
258000.0,chalet,200.0,2,2,cadalso de los vidrios,40.3133778,-4.4669751,good,1290.0,1,1,chalet,cadalso de los vidrios,alto,1,0
268000.0,duplex,108.0,2,3,velilla de san antonio,40.3668595,-3.4864377,newdevelopment,2481.0,1,1,flat,velilla de san antonio,intermedio,1,1
227900.0,flat,74.0,2,2,velilla de san antonio,40.3668595,-3.4864377,newdevelopment,3080.0,1,1,flat,velilla de san antonio,bajo,1,1
130000.0,flat,60.0,1,1,madrid,40.3893197,-3.6708916,good,2167.0,0,0,flat,san diego,bajo,1,0
260000.0,chalet,92.0,3,2,parla,40.2365402,-3.7744472,good,2826.0,0,0,chalet,centro,alto,1,0
125000.0,chalet,112.0,2,2,valdemaqueda,40.5110326,-4.300839,good,1116.0,0,0,chalet,valdemaqueda,alto,1,0
550000.0,chalet,180.0,2,1,tielmes,40.2565888,-3.300669,good,3056.0,0,0,chalet,tielmes,alto,1,0
210000.0,flat,69.0,1,2,san lorenzo de el escorial,40.5922899,-4.1457043,good,3043.0,0,0,flat,centro - casco histórico,bajo,1,1
443500.0,flat,110.0,2,2,alcobendas,40.5377777,-3.6338813,newdevelopment,4032.0,1,1,flat,alcobendas centro,intermedio,1,1
406500.0,flat,126.0,3,2,alcobendas,40.5377777,-3.6338813,newdevelopment,3226.0,1,1,flat,alcobendas centro,intermedio,1,1
371500.0,flat,92.0,2,2,alcobendas,40.5377777,-3.6338813,newdevelopment,4038.0,1,1,flat,alcobendas centro,intermedio,1,1
59000.0,flat,87.0,2,2,cenicientos,40.2626213,-4.4697555,good,678.0,0,0,flat,cenicientos,bajo,0,0
280000.0,flat,106.0,4,2,alcobendas,40.5482066,-3.6485354,good,2642.0,0,0,flat,ensanche,bajo,1,1
134900.0,flat,107.0,4,1,san lorenzo de el escorial,40.5940024,-4.1465173,renew,1261.0,0,0,flat,centro - casco histórico,intermedio,1,0
235900.0,flat,79.0,2,2,velilla de san antonio,40.3668595,-3.4864377,newdevelopment,2986.0,1,1,flat,velilla de san antonio,intermedio,0,1
385900.0,duplex,113.0,3,3,velilla de san antonio,40.3668595,-3.4864377,newdevelopment,3415.0,1,1,flat,velilla de san antonio,intermedio,1,1
157600.0,flat,91.0,3,1,madrid,40.4397663,-3.650127,good,1732.0,0,0,flat,concepción,intermedio,1,1
129900.0,flat,80.0,2,1,fuenlabrada,40.2838645,-3.7892685,good,1624.0,0,0,flat,centro,bajo,1,0
261000.0,duplex,148.0,5,2,valdemoro,40.1925245,-3.6764238,good,1764.0,0,0,flat,guardia civil - zona industrial,intermedio,1,1
260000.0,chalet,204.0,3,2,torrejón de velasco,40.1902257,-3.7792666,renew,1275.0,1,1,chalet,torrejón de velasco,alto,1,0
280000.0,duplex,68.0,1,1,madrid,40.439446,-3.6214443,good,4118.0,0,0,flat,simancas,intermedio,1,1
460000.0,chalet,188.0,4,3,paracuellos de jarama,40.529737,-3.5407933,good,2447.0,1,1,chalet,altos de jarama,alto,1,0
131999.0,flat,65.0,2,1,collado villalba,40.6320588,-4.0086467,good,2031.0,0,0,flat,los negrales,intermedio,1,0
150000.0,chalet,200.0,7,2,robregordo,41.1072263,-3.595105,good,750.0,0,0,chalet,robregordo,alto,1,0
320000.0,flat,145.0,2,2,san lorenzo de el escorial,40.597139,-4.1366317,good,2207.0,1,1,flat,abantos - carmelitas,intermedio,1,1
305000.0,duplex,90.0,2,2,torrejón de ardoz,40.4572263,-3.4707692,good,3389.0,1,1,flat,noreste,intermedio,1,1
149900.0,flat,53.0,3,1,alcalá de henares,40.4831502,-3.3499727,good,2828.0,0,0,flat,val,flat,1,1
310000.0,duplex,74.0,1,1,madrid,40.4384975,-3.7166018,good,4189.0,0,0,flat,gaztambide,bajo,0,1
208000.0,flat,78.0,2,1,san lorenzo de el escorial,40.5960008,-4.1474207,good,2667.0,1,1,flat,abantos - carmelitas,bajo,1,0
208000.0,flat,77.0,2,1,san lorenzo de el escorial,40.5964943,-4.1463514,good,2701.0,1,1,flat,abantos - carmelitas,bajo,1,1
255000.0,flat,131.0,2,2,alcalá de henares,40.4867709,-3.3677471,good,1947.0,0,0,flat,san isidro - los almendros,bajo,1,0
273000.0,duplex,161.0,4,3,leganés,40.3571371,-3.7787624,good,1696.0,0,0,flat,la fortuna,intermedio,1,1
280500.0,flat,68.0,1,1,madrid,40.4224619,-3.7053388,good,4125.0,0,0,flat,malasaña-universidad,bajo,1,1
85000.0,studio,50.0,0,1,parla,40.2360022,-3.7718003,good,1700.0,0,0,flat,reyes,bajo,0,1
299000.0,flat,48.0,2,1,madrid,40.413329,-3.7091743,good,6229.0,0,0,flat,palacio,intermedio,1,0
569000.0,chalet,225.0,4,2,pedrezuela,40.738999,-3.6287833,good,2529.0,1,1,chalet,pedrezuela,alto,1,0
335000.0,flat,102.0,3,2,madrid,40.3764034,-3.7238062,good,3284.0,0,0,flat,abrantes,mediano,1,1
163000.0,duplex,80.0,1,1,alcalá de henares,40.4765056,-3.3922844,good,2038.0,1,0,flat,la garena,intermedio,1,1
267000.0,flat,126.0,3,2,valdemoro,40.20184,-3.69413,newdevelopment,2119.0,1,1,flat,hospital,intermedio,1,1
280000.0,flat,125.0,3,2,valdemoro,40.20184,-3.69413,newdevelopment,2240.0,1,1,flat,hospital,intermedio,1,1
465000.0,flat,155.0,3,3,madrid,40.4074088,-3.6750967,good,3000.0,0,0,flat,pacífico,bajo,1,1
179000.0,flat,91.0,2,2,la cabrera,40.864568,-3.6169838,good,1967.0,0,0,flat,la cabrera,intermedio,1,0
130000.0,flat,108.0,2,2,ciempozuelos,40.1554296,-3.6184416,good,1204.0,0,0,flat,casco antiguo sur,intermedio,0,0
102350.0,flat,62.0,2,1,ciempozuelos,40.1557952,-3.6229895,good,1651.0,0,0,flat,casco antiguo sur,flat,0,0
301000.0,chalet,82.0,2,2,madrid,40.4914603,-3.6941772,good,3671.0,0,0,chalet,tres olivos - valverde,alto,1,0
85000.0,flat,22.0,1,1,madrid,40.387558,-3.66781,good,3864.0,0,0,flat,san diego,intermedio,0,0
350000.0,flat,100.0,3,1,madrid,40.4613921,-3.6971248,renew,3500.0,0,0,flat,cuzco-castillejos,intermedio,1,0
133000.0,flat,50.0,1,1,coslada,40.4183927,-3.5445542,good,2660.0,0,0,flat,ciudad 70,bajo,1,1
255000.0,flat,141.0,2,1,san sebastián de los reyes,40.5590908,-3.6284033,good,1809.0,1,1,flat,los arroyos,intermedio,0,1
329900.0,chalet,210.0,5,3,navalcarnero,40.283935,-4.0213453,good,1571.0,1,1,chalet,el pijorro,alto,1,0
208036.0,flat,61.0,1,1,alcalá de henares,40.4947005,-3.3756968,newdevelopment,3410.0,1,1,flat,ensanche,intermedio,1,1
299000.0,flat,98.0,3,2,getafe,40.3099414,-3.741007,newdevelopment,3051.0,0,0,flat,la alhóndiga,bajo,0,1
235000.0,flat,83.0,2,2,getafe,40.3086414,-3.7406437,newdevelopment,2831.0,0,0,flat,la alhóndiga,bajo,0,1
99000.0,duplex,79.0,2,2,torrelaguna,40.8276538,-3.5367215,renew,1253.0,0,0,flat,torrelaguna,intermedio,0,0
507950.0,chalet,174.0,4,3,moralzarzal,40.6917641,-3.9707054,newdevelopment,2919.0,0,0,chalet,zona iglesia - estación,alto,1,0
534710.0,chalet,174.0,4,3,moralzarzal,40.6917641,-3.9707054,newdevelopment,3073.0,0,0,chalet,zona iglesia - estación,alto,1,0
97500.0,flat,74.0,3,1,madrid,40.3421954,-3.6855807,good,1318.0,0,0,flat,san cristóbal,intermedio,0,1
100000.0,flat,83.0,3,1,parla,40.2382,-3.7702806,good,1205.0,0,0,flat,villayuventus-renfe,intermedio,0,0
314500.0,chalet,192.0,4,3,el álamo,40.2251504,-3.9985448,good,1638.0,0,0,chalet,el álamo,alto,1,0
150500.0,flat,80.0,3,1,madrid,40.3941026,-3.7447316,good,1881.0,0,0,flat,los cármenes,intermedio,0,1
156000.0,flat,83.0,3,1,mejorada del campo,40.3987604,-3.4862106,good,1880.0,0,0,flat,mejorada del campo,intermedio,0,0
150000.0,flat,87.0,3,1,pinto,40.2481958,-3.6995741,good,1724.0,0,0,flat,centro - ayuntamiento,intermedio,0,0
106400.0,chalet,110.0,4,1,el vellón,40.7695959,-3.5458066,good,967.0,0,0,chalet,el vellón,alto,1,0
107500.0,flat,71.0,3,1,parla,40.231154,-3.7688297,good,1514.0,0,0,flat,reyes,intermedio,0,0
219000.0,flat,123.0,3,2,fuenlabrada,40.2763196,-3.7923611,good,1780.0,0,0,flat,el arroyo - la fuente,intermedio,1,1
308500.0,flat,125.0,3,2,san fernando de henares,40.4248242,-3.5283238,good,2468.0,0,0,flat,montserrat - parque empresarial,intermedio,1,1
340000.0,flat,108.0,3,2,madrid,40.4461381,-3.599724,good,3148.0,1,1,flat,rejas,intermedio,1,1
249990.0,duplex,120.0,3,3,brunete,40.4053184,-3.9954288,good,2083.0,0,0,flat,brunete,intermedio,1,0
320000.0,flat,100.0,3,2,alcalá de henares,40.5027892,-3.3484395,newdevelopment,3200.0,1,1,flat,el pilar - bripac,mediano,1,1
195000.0,flat,47.0,1,1,alcalá de henares,40.5027892,-3.3484395,newdevelopment,4149.0,1,1,flat,el pilar - bripac,intermedio,1,1
348000.0,flat,97.0,3,2,alcalá de henares,40.5027892,-3.3484395,newdevelopment,3588.0,1,1,flat,el pilar - bripac,bajo,1,1
265000.0,flat,78.0,2,2,alcalá de henares,40.5027892,-3.3484395,newdevelopment,3397.0,1,1,flat,el pilar - bripac,intermedio,1,1
330000.0,flat,92.0,3,2,alcalá de henares,40.5027892,-3.3484395,newdevelopment,3587.0,1,1,flat,el pilar - bripac,mediano,1,1
295000.0,studio,50.0,0,1,madrid,40.4225112,-3.7120639,good,5900.0,0,0,flat,palacio,intermedio,1,1
599000.0,chalet,204.0,4,3,soto del real,40.7651476,-3.7833909,good,2936.0,0,0,chalet,soto del real,alto,1,0
185000.0,flat,75.0,2,1,valdemoro,40.1878335,-3.6835444,good,2467.0,1,1,flat,hispanoamérica - comunidades,en,1,1
195000.0,flat,70.0,3,1,madrid,40.3871032,-3.6552116,good,2786.0,0,0,flat,palomeras bajas,intermedio,1,1
185000.0,flat,95.0,3,1,madrid,40.3818487,-3.6098625,good,1947.0,0,0,flat,santa eugenia,intermedio,1,1
175000.0,flat,85.0,3,1,madrid,40.3952494,-3.6569252,good,2059.0,0,0,flat,numancia,intermedio,1,1
191000.0,flat,71.0,1,1,san sebastián de los reyes,40.5383713,-3.620429,good,2690.0,1,0,flat,vega de la moraleja,intermedio,1,1
599000.0,flat,128.0,3,2,madrid,40.414229,-3.7176841,renew,4680.0,0,0,flat,imperial,intermedio,1,1
595000.0,chalet,245.0,4,3,algete,40.6037088,-3.5015803,good,2429.0,1,1,chalet,algete,alto,1,0
265000.0,studio,45.0,0,1,madrid,40.4674219,-3.7926112,good,5889.0,1,0,flat,valdemarín,intermedio,1,1
169995.0,flat,85.0,3,1,madrid,40.3993163,-3.6597774,good,2000.0,0,0,flat,numancia,intermedio,1,1
160000.0,flat,70.0,2,1,madrid,40.3900522,-3.6474784,good,2286.0,0,0,flat,portazgo,intermedio,1,0
220000.0,chalet,189.0,4,2,cadalso de los vidrios,40.3004273,-4.4419389,good,1164.0,0,0,chalet,cadalso de los vidrios,alto,1,0
210000.0,flat,123.0,3,2,galapagar,40.578452,-4.001988,good,1707.0,0,0,flat,casa amarilla,intermedio,1,1
245000.0,countryhouse,138.0,1,0,brunete,40.3911984,-3.9997744,renew,1775.0,0,0,countryhouse,brunete,muy alto,1,0
543000.0,flat,147.0,3,2,getafe,40.3170789,-3.7304308,newdevelopment,3694.0,0,0,flat,el rosón - kelvinator,intermedio,1,1
140030.0,chalet,54.0,2,1,navas del rey,40.361918,-4.2806279,good,2593.0,0,0,chalet,navas del rey,alto,1,0
300000.0,chalet,89.0,1,1,pozuelo de alarcón,40.434284,-3.8178426,good,3371.0,0,0,chalet,zona pueblo,alto,1,0
319000.0,chalet,245.0,4,3,cubas de la sagra,40.193991,-3.8431503,good,1302.0,0,0,chalet,cubas de la sagra,alto,1,0
115000.0,flat,62.0,1,1,alcalá de henares,40.472732,-3.3801544,good,1855.0,0,0,flat,reyes católicos,flat,1,1
399900.0,penthouse,62.0,1,1,madrid,40.4503635,-3.7081061,newdevelopment,6450.0,0,0,flat,bellas vistas,intermedio,1,1
359900.0,penthouse,54.0,1,1,madrid,40.4503635,-3.7081061,newdevelopment,6665.0,0,0,flat,bellas vistas,intermedio,1,1
275000.0,flat,80.0,1,1,madrid,40.4574578,-3.7067943,good,3438.0,1,1,flat,berruguete,bajo,1,1
318500.0,penthouse,78.0,2,1,alcalá de henares,40.4857937,-3.3679625,newdevelopment,4083.0,1,1,flat,san isidro - los almendros,intermedio,1,1
204900.0,flat,95.0,5,2,alcalá de henares,40.4778306,-3.3768853,renew,2157.0,0,0,flat,reyes católicos,bajo,1,1
428000.0,flat,64.0,1,1,madrid,40.4760638,-3.7286061,newdevelopment,6688.0,0,0,flat,peñagrande,flat,0,1
259000.0,chalet,242.0,4,2,villamanta,40.2986681,-4.1199717,good,1070.0,1,1,chalet,villamanta,alto,1,0
195000.0,duplex,119.0,3,3,madrid,40.3900085,-3.6716394,good,1639.0,0,0,flat,san diego,bajo,1,1
149800.0,chalet,147.0,3,1,perales de tajuña,40.2363918,-3.3497744,good,1019.0,1,1,chalet,perales de tajuña,alto,1,0
235000.0,chalet,220.0,3,3,pelayos de la presa,40.3588183,-4.3344973,good,1068.0,1,1,chalet,pelayos de la presa,alto,1,0
239000.0,chalet,160.0,3,1,villavieja del lozoya,41.0072951,-3.6723905,good,1494.0,0,0,chalet,villavieja del lozoya,alto,1,0
189000.0,flat,89.0,3,1,madrid,40.3947156,-3.7243503,good,2124.0,0,0,flat,san isidro,intermedio,1,0
343700.0,flat,52.0,1,1,madrid,40.4537288,-3.7162626,newdevelopment,6610.0,0,0,flat,ciudad universitaria,intermedio,1,0
368245.0,chalet,111.0,3,2,fuente el saz de jarama,40.6347118,-3.5180269,good,3318.0,1,1,chalet,fuente el saz de jarama,alto,1,0
169900.0,flat,70.0,2,1,colmenarejo,40.5605994,-4.0163984,good,2427.0,1,1,flat,colmenarejo,intermedio,1,0
375000.0,flat,63.0,1,1,madrid,40.4133273,-3.7185606,renew,5952.0,0,0,flat,imperial,mediano,0,1
395000.0,chalet,251.0,4,3,navalcarnero,40.2808334,-4.0228583,good,1574.0,1,1,chalet,covadonga - los manzanos,alto,1,0
350000.0,flat,78.0,3,2,madrid,40.4754407,-3.638819,good,4487.0,0,0,flat,pinar del rey,mediano,1,1
290000.0,flat,128.0,3,2,coslada,40.427024,-3.5627489,good,2266.0,0,0,flat,coslada pueblo,intermedio,1,1
555000.0,flat,137.0,4,1,madrid,40.4121132,-3.7058091,good,4051.0,0,0,flat,lavapiés-embajadores,intermedio,1,1
189000.0,flat,86.0,3,1,madrid,40.373639,-3.7555025,good,2198.0,1,1,flat,buena vista,intermedio,0,0
194900.0,chalet,138.0,5,1,valdemaqueda,40.5112569,-4.2954262,good,1412.0,0,0,chalet,valdemaqueda,alto,1,0
255000.0,flat,72.0,1,1,madrid,40.4373516,-3.6334369,good,3542.0,1,1,flat,simancas,intermedio,1,1
158000.0,flat,88.0,3,1,pinto,40.2451097,-3.7018348,good,1795.0,0,0,flat,centro - ayuntamiento,intermedio,1,0
158000.0,flat,88.0,3,1,pinto,40.2447994,-3.7009744,good,1795.0,0,0,flat,centro - ayuntamiento,intermedio,1,0
339000.0,flat,94.0,2,2,madrid,40.4011558,-3.5486031,newdevelopment,3606.0,1,1,flat,el cañaveral,intermedio,1,1
348000.0,flat,94.0,2,2,madrid,40.4011558,-3.5486031,newdevelopment,3702.0,1,1,flat,el cañaveral,mediano,1,1
137500.0,flat,59.0,2,1,leganés,40.3259113,-3.7684872,good,2331.0,0,0,flat,vírgenes,intermedio,0,0
132500.0,flat,63.0,3,1,madrid,40.3517834,-3.694947,good,2103.0,0,0,flat,los ángeles,intermedio,0,0
118000.0,flat,75.0,3,1,alcalá de henares,40.4928869,-3.3685025,good,1573.0,0,0,flat,chorrillo,intermedio,0,0
158000.0,flat,88.0,3,1,pinto,40.2447192,-3.7022377,good,1795.0,0,0,flat,centro - ayuntamiento,intermedio,1,0
144000.0,flat,84.0,3,1,madrid,40.3507836,-3.6879205,good,1714.0,0,0,flat,los rosales,intermedio,0,0
281000.0,chalet,240.0,3,1,el escorial,40.6165838,-4.0354981,good,1171.0,0,0,chalet,las zorreras - monte encinar,alto,1,0
260000.0,chalet,153.0,3,2,san martín de la vega,40.2095459,-3.5815625,good,1699.0,1,1,chalet,san martín de la vega,alto,1,0
181000.0,flat,134.0,4,2,madrid,40.3955186,-3.7438249,renew,1351.0,0,0,flat,lucero,mediano,1,1
469000.0,chalet,220.0,5,2,collado mediano,40.6967651,-4.0349944,good,2132.0,0,0,chalet,collado mediano,alto,1,0
460000.0,chalet,177.0,3,2,manzanares el real,40.7299867,-3.8625047,good,2599.0,1,1,chalet,manzanares el real,alto,1,0
310000.0,duplex,93.0,2,2,madrid,40.4511915,-3.7088665,good,3333.0,0,0,flat,bellas vistas,bajo,0,0
535000.0,chalet,270.0,5,3,los molinos,40.7092995,-4.0665807,good,1981.0,0,0,chalet,los molinos,alto,1,0
330000.0,flat,63.0,1,1,madrid,40.4678266,-3.6848094,good,5238.0,0,0,flat,castilla,intermedio,1,1
590000.0,flat,168.0,3,2,san sebastián de los reyes,40.558406,-3.639824,good,3512.0,1,1,flat,tempranales,intermedio,1,1
150000.0,studio,47.0,0,1,los molinos,40.710703,-4.0744269,good,3191.0,0,0,flat,los molinos,intermedio,1,1
179000.0,flat,64.0,3,1,madrid,40.4689554,-3.7026285,renew,2797.0,0,0,flat,valdeacederas,intermedio,0,0
277400.0,flat,73.0,2,1,madrid,40.385906,-3.7027063,good,3800.0,0,0,flat,almendrales,bajo,1,0
395000.0,flat,150.0,4,2,alcobendas,40.5446239,-3.6379004,good,2633.0,0,0,flat,alcobendas centro,intermedio,1,1
145000.0,flat,52.0,2,1,madrid,40.3840913,-3.6705266,good,2788.0,0,0,flat,san diego,intermedio,1,0
437500.0,penthouse,69.0,1,1,madrid,40.4173791,-3.6209881,newdevelopment,6341.0,1,1,flat,arcos,mediano,1,1
500000.0,flat,110.0,3,2,madrid,40.4195395,-3.7078132,good,4545.0,0,0,flat,sol,intermedio,1,1
575700.0,chalet,264.0,4,3,colmenar viejo,40.6780625,-3.7770625,newdevelopment,2181.0,1,1,chalet,cerca tejera,alto,1,0
550000.0,chalet,150.0,5,2,cercedilla,40.728429,-4.0718507,renew,3667.0,0,0,chalet,cercedilla,alto,1,0
289000.0,chalet,188.0,3,2,cabanillas de la sierra,40.830771,-3.6275418,good,1537.0,0,0,chalet,cabanillas de la sierra,alto,1,0
240000.0,chalet,245.0,4,2,cabanillas de la sierra,40.8172791,-3.6238351,good,980.0,0,0,chalet,cabanillas de la sierra,alto,1,0
220400.0,flat,58.0,2,1,madrid,40.3861232,-3.7038871,good,3800.0,0,0,flat,almendrales,intermedio,0,0
270000.0,flat,85.0,4,1,madrid,40.4329222,-3.648766,renew,3176.0,0,0,flat,quintana,intermedio,1,0
139062.0,flat,85.0,2,2,aranjuez,40.0325362,-3.6064162,newdevelopment,1636.0,0,0,flat,centro,intermedio,1,1
213939.0,flat,112.0,4,2,aranjuez,40.0325362,-3.6064162,newdevelopment,1910.0,0,0,flat,centro,flat,1,1
193342.0,flat,101.0,3,2,aranjuez,40.0325362,-3.6064162,newdevelopment,1914.0,0,0,flat,centro,flat,1,1
150000.0,flat,85.0,3,1,fuenlabrada,40.2879525,-3.7917496,renew,1765.0,0,0,flat,centro,intermedio,1,1
275000.0,flat,60.0,1,1,madrid,40.4057037,-3.6774054,good,4583.0,0,0,flat,pacífico,intermedio,0,1
185000.0,flat,75.0,1,1,madrid,40.4380706,-3.6402578,good,2467.0,0,0,flat,quintana,bajo,1,0
312000.0,flat,88.0,2,2,getafe,40.3179911,-3.700932,newdevelopment,3545.0,1,1,flat,los molinos,intermedio,1,1
390000.0,flat,98.0,2,2,getafe,40.3179911,-3.700932,newdevelopment,3980.0,1,1,flat,los molinos,flat,1,1
401000.0,flat,105.0,3,2,getafe,40.3179911,-3.700932,newdevelopment,3819.0,1,1,flat,los molinos,flat,1,1
377000.0,flat,94.0,2,2,getafe,40.3179911,-3.700932,newdevelopment,4011.0,1,1,flat,los molinos,flat,1,1
333000.0,flat,132.0,3,2,alcalá de henares,40.50157,-3.34737,newdevelopment,2523.0,0,0,flat,el pilar - bripac,flat,1,1
369000.0,chalet,220.0,4,3,parla,40.2401824,-3.7567498,good,1677.0,1,1,chalet,pintores-ferial,alto,1,0
131500.0,flat,86.0,3,1,alcalá de henares,40.476051,-3.3883485,good,1529.0,0,0,flat,reyes católicos,bajo,1,0
356618.0,flat,88.0,2,1,getafe,40.3022106,-3.7332137,newdevelopment,4052.0,0,0,flat,san isidro,mediano,1,1
289811.0,flat,80.0,2,1,getafe,40.3022106,-3.7332137,newdevelopment,3623.0,0,0,flat,san isidro,intermedio,1,1
413631.0,flat,116.0,3,2,getafe,40.3022106,-3.7332137,newdevelopment,3566.0,0,0,flat,san isidro,intermedio,1,1
396517.0,flat,123.0,3,2,getafe,40.3022106,-3.7332137,newdevelopment,3224.0,0,0,flat,san isidro,intermedio,1,1
441889.0,flat,138.0,4,3,getafe,40.3022106,-3.7332137,newdevelopment,3202.0,0,0,flat,san isidro,intermedio,1,1
407044.0,flat,130.0,3,2,getafe,40.3022106,-3.7332137,newdevelopment,3131.0,0,0,flat,san isidro,intermedio,1,1
544011.0,flat,181.0,4,3,getafe,40.3022106,-3.7332137,newdevelopment,3006.0,0,0,flat,san isidro,intermedio,1,1
451819.0,flat,123.0,3,2,getafe,40.3022106,-3.7332137,newdevelopment,3673.0,0,0,flat,san isidro,intermedio,1,1
245000.0,flat,49.0,1,1,madrid,40.4196271,-3.6989051,good,5000.0,0,0,flat,chueca-justicia,bajo,1,0
240000.0,chalet,95.0,3,2,colmenar viejo,40.6611936,-3.7673665,good,2526.0,0,0,chalet,centro,alto,1,0
210000.0,chalet,165.0,3,1,becerril de la sierra,40.7165633,-3.9920033,renew,1273.0,0,0,chalet,becerril de la sierra,alto,1,0
375000.0,flat,66.0,1,1,madrid,40.4125645,-3.7100825,good,5682.0,0,0,flat,palacio,intermedio,1,1
254000.0,chalet,180.0,3,3,valdemorillo,40.4993108,-4.0586746,good,1411.0,1,1,chalet,valdemorillo pueblo,alto,1,0
285000.0,flat,60.0,1,2,madrid,40.4570633,-3.645549,good,4750.0,1,1,flat,canillas,intermedio,1,1
346800.0,chalet,178.0,4,2,navalcarnero,40.2873536,-4.0134453,renew,1948.0,1,1,chalet,centro,alto,1,0
249800.0,duplex,52.0,2,1,leganés,40.3287096,-3.7631991,newdevelopment,4804.0,1,1,flat,casco antiguo,flat,1,1
480000.0,flat,91.0,2,2,las rozas de madrid,40.4918586,-3.8775799,newdevelopment,5275.0,1,1,flat,casco antiguo,intermedio,1,1
399000.0,chalet,132.0,4,3,soto del real,40.7554358,-3.7918815,good,3023.0,1,1,chalet,soto del real,alto,1,0
56900.0,duplex,54.0,1,1,camarma de esteruelas,40.5512843,-3.3773369,good,1054.0,0,0,flat,camarma de esteruelas,intermedio,1,0
118000.0,flat,50.0,2,1,madrid,40.4033274,-3.745391,good,2360.0,0,0,flat,lucero,bajo,1,0
129000.0,flat,69.0,2,1,fuenlabrada,40.2898797,-3.7993659,good,1870.0,0,0,flat,la serna,bajo,1,0
101000.0,flat,72.0,3,1,madrid,40.3428618,-3.7147736,good,1403.0,0,0,flat,villaverde alto,bajo,1,0
215000.0,flat,92.0,3,1,madrid,40.45964,-3.7017903,good,2337.0,0,0,flat,berruguete,bajo,1,0
68500.0,flat,21.0,1,1,madrid,40.3879215,-3.6504497,good,3262.0,0,0,flat,portazgo,bajo,1,0
121000.0,flat,84.0,3,1,madrid,40.384716,-3.6717899,good,1440.0,0,0,flat,entrevías,bajo,1,0
435000.0,chalet,136.0,3,1,getafe,40.303134,-3.7337304,good,3199.0,0,0,chalet,san isidro,alto,1,0
103000.0,flat,90.0,3,1,madrid,40.3674243,-3.7156137,good,1144.0,0,0,flat,orcasitas,bajo,1,0
260000.0,flat,49.0,1,1,madrid,40.4417482,-3.6745721,good,5306.0,0,0,flat,prosperidad,intermedio,1,0
255000.0,flat,73.0,1,1,madrid,40.3993933,-3.7076588,good,3493.0,0,0,flat,acacias,bajo,1,1
194000.0,flat,100.0,3,2,madrid,40.3916956,-3.6389475,good,1940.0,0,0,flat,palomeras sureste,intermedio,1,1
152500.0,flat,61.0,1,1,madrid,40.3909463,-3.6621089,good,2500.0,0,0,flat,palomeras bajas,flat,0,0
149000.0,flat,77.0,1,1,madrid,40.392652,-3.6640143,good,1935.0,0,0,flat,palomeras bajas,intermedio,0,0
83000.0,flat,89.0,3,1,aranjuez,40.0268798,-3.6174,good,933.0,0,0,flat,vergel-las olivas,intermedio,1,0
344000.0,flat,54.0,1,1,madrid,40.4537959,-3.7084923,good,6370.0,0,0,flat,bellas vistas,intermedio,1,1
341000.0,chalet,153.0,4,3,getafe,40.2909552,-3.7464635,good,2229.0,1,1,chalet,sector 3,alto,1,0
90000.0,flat,69.0,2,1,madrid,40.3866898,-3.6516894,good,1304.0,0,0,flat,portazgo,bajo,1,0
320000.0,chalet,255.0,3,1,parla,40.2236131,-3.7788246,good,1255.0,0,0,chalet,fuentebella-san felix-el leguario,alto,1,0
140000.0,flat,69.0,2,1,madrid,40.394944,-3.6683998,good,2029.0,0,0,flat,san diego,bajo,1,0
174000.0,chalet,124.0,3,1,el álamo,40.227209,-3.9828425,good,1403.0,0,0,chalet,el álamo,alto,1,0
340000.0,chalet,200.0,5,2,guadarrama,40.6656629,-4.0576762,renew,1700.0,1,1,chalet,guadarrama,alto,1,0
175000.0,chalet,173.0,3,1,pelayos de la presa,40.3584112,-4.3288795,good,1012.0,0,0,chalet,pelayos de la presa,alto,1,0
174000.0,flat,134.0,3,1,móstoles,40.3208059,-3.8533842,good,1299.0,0,0,flat,este,mediano,1,1
112000.0,flat,81.0,3,1,madrid,40.3992777,-3.7386913,good,1383.0,0,0,flat,los cármenes,intermedio,1,0
258000.0,flat,130.0,3,2,fuenlabrada,40.2959375,-3.8363098,good,1985.0,0,0,flat,loranca,mediano,1,1
78000.0,flat,81.0,3,1,madrid,40.3449069,-3.6880447,renew,963.0,0,0,flat,san cristóbal,intermedio,1,0
155000.0,flat,48.0,2,1,madrid,40.386676,-3.7067679,good,3229.0,0,0,flat,moscardó,intermedio,1,0
454500.0,flat,82.0,2,2,las rozas de madrid,40.5183875,-3.8965925,newdevelopment,5543.0,1,1,flat,parque empresarial,intermedio,1,1
415600.0,flat,78.0,2,2,las rozas de madrid,40.5183875,-3.8965925,newdevelopment,5328.0,1,1,flat,parque empresarial,intermedio,1,1
250000.0,flat,37.0,1,1,madrid,40.4258444,-3.7036316,good,6757.0,0,0,flat,malasaña-universidad,intermedio,0,0
255000.0,duplex,61.0,1,1,madrid,40.4384369,-3.6175857,good,4180.0,1,1,flat,simancas,intermedio,1,1
115000.0,flat,73.0,3,1,madrid,40.3860434,-3.6714446,good,1575.0,0,0,flat,san diego,bajo,1,0
126000.0,flat,94.0,3,1,parla,40.2294338,-3.7749243,good,1340.0,0,0,flat,fuentebella-san felix-el leguario,intermedio,1,0
66000.0,flat,32.0,1,1,madrid,40.3808623,-3.6727038,good,2063.0,0,0,flat,entrevías,bajo,1,0
450000.0,flat,97.0,3,2,madrid,40.4658489,-3.7012194,good,4639.0,0,0,flat,valdeacederas,intermedio,1,1
120800.0,flat,125.0,3,1,collado villalba,40.6306638,-4.0143674,good,966.0,0,0,flat,carlos ruiz,bajo,1,0
209933.0,chalet,160.0,3,1,serracines,40.6249275,-3.3975054,good,1312.0,0,0,chalet,serracines,alto,1,0
175000.0,flat,83.0,3,1,móstoles,40.32139,-3.8475287,good,2108.0,0,0,flat,este,mediano,1,0
199000.0,flat,69.0,2,1,cercedilla,40.7376959,-4.0617482,good,2884.0,0,0,flat,cercedilla,intermedio,1,0
107500.0,flat,55.0,2,1,madrid,40.3832181,-3.6987298,good,1955.0,0,0,flat,almendrales,intermedio,1,0
116000.0,chalet,69.0,2,1,madrid,40.3794186,-3.6690086,good,1681.0,0,0,chalet,entrevías,alto,1,0
152000.0,flat,89.0,3,1,móstoles,40.3159999,-3.8544428,good,1708.0,0,0,flat,sur,mediano,1,0
236000.0,flat,73.0,2,2,alcalá de henares,40.4810189,-3.3833662,newdevelopment,3233.0,1,1,flat,san isidro - los almendros,intermedio,1,1
249000.0,chalet,117.0,4,2,valdemaqueda,40.5121567,-4.3020856,good,2128.0,0,0,chalet,valdemaqueda,alto,1,0
399990.0,flat,84.0,3,1,madrid,40.4368478,-3.6718582,good,4762.0,0,0,flat,guindalera,intermedio,1,0
238000.0,penthouse,50.0,1,1,alcalá de henares,40.5027892,-3.3484395,newdevelopment,4760.0,1,1,flat,el pilar - bripac,mediano,1,1
90000.0,flat,62.0,3,1,aranjuez,40.0372812,-3.5910162,good,1452.0,0,0,flat,foso-moreras,intermedio,1,0
370000.0,flat,80.0,3,2,madrid,40.4054737,-3.7013079,good,4625.0,0,0,flat,acacias,intermedio,1,1
298000.0,flat,75.0,4,2,madrid,40.4347182,-3.6453021,renew,3973.0,0,0,flat,quintana,en,1,1
134000.0,flat,35.0,1,1,madrid,40.4304291,-3.6554104,good,3829.0,0,0,flat,ventas,bajo,1,0
147500.0,flat,69.0,3,1,getafe,40.3008174,-3.7264785,good,2138.0,0,0,flat,san isidro,intermedio,0,1
198000.0,flat,64.0,1,1,madrid,40.4339615,-3.6422678,good,3094.0,0,0,flat,pueblo nuevo,intermedio,1,0
174900.0,flat,65.0,2,2,guadarrama,40.6753215,-4.091301,good,2691.0,1,1,flat,guadarrama,intermedio,0,1
73000.0,studio,22.0,0,1,madrid,40.3798287,-3.6680361,good,3318.0,0,0,flat,san diego,intermedio,0,0
84000.0,flat,30.0,2,1,madrid,40.394691,-3.6668724,good,2800.0,0,0,flat,san diego,bajo,0,0
215000.0,studio,47.0,0,0,madrid,40.4852904,-3.6677903,renew,4574.0,0,0,flat,virgen del cortijo - manoteras,mediano,1,1
190000.0,chalet,170.0,4,2,morata de tajuña,40.2324559,-3.4379099,good,1118.0,0,0,chalet,morata de tajuña,alto,1,0
300000.0,flat,111.0,4,2,madrid,40.4189962,-3.6260492,good,2703.0,0,0,flat,pueblo nuevo,intermedio,1,1
70000.0,countryhouse,254.0,4,1,estremera,40.1833641,-3.1056452,good,276.0,0,0,countryhouse,estremera,muy alto,1,0
155000.0,flat,30.0,2,1,madrid,40.4078946,-3.6985893,good,5167.0,0,0,flat,lavapiés-embajadores,intermedio,0,0
230000.0,flat,124.0,2,1,madrid,40.3906486,-3.668761,good,1855.0,1,1,flat,san diego,bajo,1,1
269900.0,chalet,220.0,5,3,casarrubuelos,40.1709605,-3.8290513,good,1227.0,0,0,chalet,casarrubuelos,alto,1,0
600000.0,chalet,255.0,5,3,valdemorillo,40.5367443,-4.0879485,good,2353.0,1,1,chalet,mojadillas - parque de las infantas - el paraiso,alto,1,0
389900.0,penthouse,60.0,1,1,madrid,40.4503635,-3.7081061,newdevelopment,6498.0,0,0,flat,bellas vistas,intermedio,1,1
165000.0,chalet,234.0,3,1,miraflores de la sierra,40.8132624,-3.7666237,renew,705.0,0,0,chalet,miraflores de la sierra,alto,1,0
385000.0,chalet,234.0,4,2,valdemorillo,40.4705718,-4.0700464,good,1645.0,1,1,chalet,cerro alarcón,alto,1,0
104900.0,countryhouse,100.0,3,1,robledo de chavela,40.4981831,-4.2428655,good,1049.0,0,0,countryhouse,robledo de chavela,muy alto,1,0
110000.0,flat,69.0,4,1,parla,40.2371992,-3.7774758,good,1594.0,0,0,flat,parque inlasa,intermedio,1,0
115000.0,countryhouse,120.0,1,1,pinilla del valle,40.92597,-3.82015,renew,958.0,0,0,countryhouse,pinilla del valle,muy alto,1,0
169900.0,flat,64.0,3,1,alcalá de henares,40.4859652,-3.3560533,good,2655.0,0,0,flat,juan de austria,mediano,1,1
547310.0,chalet,214.0,5,3,moralzarzal,40.6911188,-3.967435,good,2558.0,0,0,chalet,zona iglesia - estación,alto,1,0
409000.0,chalet,222.0,7,3,lozoyuela-navas-sieteiglesias,40.9149452,-3.5819377,good,1842.0,0,0,chalet,lozoyuela-navas-sieteiglesias,alto,1,0
520000.0,flat,103.0,2,2,pozuelo de alarcón,40.4339435,-3.8149262,good,5049.0,0,0,flat,zona pueblo,intermedio,1,1
291000.0,chalet,188.0,4,3,valdemorillo,40.4969657,-4.0716257,good,1548.0,0,0,chalet,valdemorillo pueblo,alto,1,0
127000.0,flat,63.0,3,1,madrid,40.3970206,-3.7498677,good,2016.0,0,0,flat,lucero,intermedio,0,0
157000.0,studio,113.0,0,2,madrid,40.3709069,-3.700472,good,1389.0,0,0,flat,12 de octubre-orcasur,intermedio,0,0
70500.0,flat,51.0,1,1,villamantilla,40.3368144,-4.1324594,good,1382.0,0,0,flat,villamantilla,bajo,0,0
69500.0,flat,51.0,1,1,villamantilla,40.3393706,-4.1308338,good,1363.0,0,0,flat,villamantilla,bajo,0,0
95000.0,chalet,150.0,3,1,cenicientos,40.2612058,-4.4718142,renew,633.0,0,0,chalet,cenicientos,alto,1,0
120000.0,flat,80.0,3,1,alcalá de henares,40.478143,-3.3866695,good,1500.0,0,0,flat,reyes católicos,intermedio,1,0
346000.0,chalet,199.0,3,3,eurovillas,40.3472643,-3.2763764,good,1739.0,1,1,chalet,eurovillas,alto,1,0
153500.0,flat,73.0,3,1,torrejón de ardoz,40.4604076,-3.4850486,good,2103.0,0,0,flat,noroeste,intermedio,0,0
424200.0,chalet,279.0,4,3,serracines,40.6363907,-3.403499,good,1520.0,1,1,chalet,serracines,alto,1,0
566000.0,penthouse,121.0,2,2,madrid,40.394656,-3.6740769,good,4678.0,1,1,flat,adelfas,mediano,1,1
145000.0,duplex,83.0,3,2,el molar,40.7336319,-3.5828411,good,1747.0,0,0,flat,el molar,intermedio,1,0
248000.0,countryhouse,105.0,2,1,pedrezuela,40.7694093,-3.6216925,good,2362.0,0,0,countryhouse,pedrezuela,muy alto,1,0
335000.0,flat,82.0,2,2,majadahonda,40.4699862,-3.8715029,good,4085.0,0,0,flat,casco antiguo,intermedio,1,1
215000.0,chalet,102.0,3,1,el vellón,40.7695955,-3.5477579,renew,2108.0,1,1,chalet,el vellón,alto,1,0
170000.0,flat,42.0,1,1,paracuellos de jarama,40.5040863,-3.5307623,good,4048.0,1,1,flat,casco urbano,bajo,1,1
214800.0,flat,69.0,1,1,madrid,40.4456107,-3.5851416,good,3113.0,1,1,flat,rejas,intermedio,1,1
123000.0,flat,51.0,3,1,madrid,40.3893588,-3.6666694,renew,2412.0,0,0,flat,palomeras bajas,intermedio,1,0
244000.0,flat,127.0,3,2,arganda,40.3013979,-3.448122,good,1921.0,1,1,flat,centro,intermedio,1,1
210000.0,flat,124.0,4,2,guadarrama,40.6735337,-4.0922151,good,1694.0,0,0,flat,guadarrama,intermedio,1,0
393000.0,flat,105.0,3,2,madrid,40.3990994,-3.5483682,newdevelopment,3743.0,1,1,flat,el cañaveral,mediano,1,1
179900.0,flat,117.0,3,2,navalcarnero,40.2860094,-4.0139896,good,1538.0,0,0,flat,centro,intermedio,1,0
128990.0,flat,88.0,2,2,valdemoro,40.1912823,-3.6711937,good,1466.0,0,0,flat,zona estación,intermedio,1,1
185000.0,duplex,112.0,2,3,serranillos del valle,40.2074908,-3.8827571,good,1652.0,1,1,flat,serranillos del valle,intermedio,1,0
379000.0,chalet,238.0,4,3,parla,40.2275048,-3.7757914,good,1592.0,1,1,chalet,fuentebella-san felix-el leguario,alto,1,0
368000.0,flat,96.0,2,1,madrid,40.3978894,-3.6705692,renew,3833.0,0,0,flat,adelfas,intermedio,0,1
325000.0,chalet,186.0,4,3,móstoles,40.3106624,-3.9362411,good,1747.0,1,1,chalet,coimbra - guadarrama,alto,1,0
305000.0,duplex,208.0,3,3,arroyomolinos,40.2866005,-3.917164,good,1466.0,1,1,flat,las castañeras - bulevar,intermedio,1,1
159900.0,flat,76.0,3,1,madrid,40.3802334,-3.7493514,good,2104.0,0,0,flat,vista alegre,intermedio,0,1
154000.0,flat,90.0,3,1,valdemoro,40.192654,-3.6828598,good,1711.0,0,0,flat,brezo,intermedio,1,0
330000.0,chalet,174.0,3,1,parla,40.223136,-3.7718005,good,1897.0,0,0,chalet,fuentebella-san felix-el leguario,alto,1,0
143000.0,flat,114.0,3,1,fuenlabrada,40.2847813,-3.8058687,good,1254.0,0,0,flat,fuenlabrada ii - el molino,intermedio,1,0
94000.0,flat,68.0,2,1,parla,40.2414657,-3.7677413,good,1382.0,0,0,flat,villayuventus-renfe,intermedio,1,0
456000.0,chalet,256.0,3,1,colmenarejo,40.5502663,-4.0070951,good,1781.0,0,0,chalet,colmenarejo,alto,1,0
102000.0,flat,83.0,3,1,parla,40.241575,-3.7677901,good,1229.0,0,0,flat,villayuventus-renfe,intermedio,1,0
88000.0,flat,56.0,2,1,madrid,40.4277393,-3.6221301,good,1571.0,0,0,flat,amposta,intermedio,1,0
239900.0,chalet,252.0,3,2,cadalso de los vidrios,40.3127674,-4.4649539,good,952.0,1,1,chalet,cadalso de los vidrios,alto,1,0
110000.0,flat,90.0,3,1,fuenlabrada,40.2796426,-3.789791,good,1222.0,0,0,flat,el arroyo - la fuente,bajo,1,0
99000.0,chalet,232.0,3,1,cadalso de los vidrios,40.3026201,-4.4414536,renew,427.0,0,0,chalet,cadalso de los vidrios,alto,1,0
40500.0,flat,63.0,2,1,san martín de la vega,40.2040984,-3.5830581,good,643.0,0,0,flat,san martín de la vega,intermedio,1,0
95000.0,flat,75.0,3,1,parla,40.2381739,-3.7686189,good,1267.0,0,0,flat,reyes,intermedio,1,0
220000.0,flat,112.0,3,1,collado villalba,40.6211005,-4.0065638,good,1964.0,0,0,flat,parque de la coruña - las suertes,intermedio,1,0
152000.0,flat,64.0,2,1,collado villalba,40.6196398,-4.0080108,good,2375.0,0,0,flat,parque de la coruña - las suertes,intermedio,1,0
94000.0,flat,49.0,2,1,madrid,40.3759079,-3.6214647,good,1918.0,0,0,flat,casco histórico de vallecas,intermedio,1,0
94000.0,flat,68.0,2,1,madrid,40.368934,-3.668271,good,1382.0,0,0,flat,entrevías,intermedio,1,0
150000.0,flat,75.0,3,2,la cabrera,40.8654601,-3.6126799,good,2000.0,0,0,flat,la cabrera,intermedio,1,0
430000.0,chalet,215.0,3,3,torrejón de ardoz,40.4421991,-3.4656263,newdevelopment,2000.0,1,1,chalet,suroeste,alto,1,0
406000.0,penthouse,176.0,4,3,leganés,40.32594,-3.7644766,good,2307.0,1,1,flat,casco antiguo,intermedio,1,1
345300.0,chalet,270.0,5,3,guadalix de la sierra,40.7847508,-3.7001589,good,1279.0,1,1,chalet,guadalix de la sierra,alto,1,0
260000.0,flat,78.0,3,1,madrid,40.4357861,-3.6470617,renew,3333.0,0,0,flat,quintana,intermedio,1,1
315000.0,chalet,120.0,3,0,hoyo de manzanares,40.627342,-3.9078299,renew,2625.0,0,0,chalet,hoyo de manzanares,alto,1,0
161000.0,flat,270.0,3,2,madrid,40.4028556,-3.7258137,renew,596.0,0,0,flat,san isidro,st,1,0
143000.0,flat,45.0,1,1,madrid,40.3806924,-3.7493756,good,3178.0,0,0,flat,vista alegre,bajo,1,1
885000.0,duplex,218.0,2,0,madrid,40.4105514,-3.6753344,renew,4060.0,1,1,flat,niño jesús,flat,1,1
245000.0,flat,65.0,2,1,madrid,40.4070825,-3.6426114,good,3769.0,0,0,flat,vinateros,intermedio,1,0
228000.0,chalet,150.0,4,2,santa maría de la alameda,40.5958264,-4.2602149,good,1520.0,1,1,chalet,santa maría de la alameda,alto,1,0
759000.0,flat,160.0,4,2,madrid,40.4149631,-3.7192981,good,4744.0,0,0,flat,imperial,mediano,1,1
297000.0,flat,104.0,4,1,madrid,40.3935051,-3.7093872,good,2856.0,0,0,flat,comillas,intermedio,0,0
135000.0,studio,24.0,0,1,madrid,40.4474178,-3.69848,good,5625.0,0,0,flat,cuatro caminos,intermedio,1,0
175508.0,flat,53.0,1,1,madrid,40.3831462,-3.6267708,good,3311.0,1,1,flat,casco histórico de vallecas,intermedio,1,1
800000.0,flat,163.0,5,2,madrid,40.42438,-3.70302,good,4908.0,0,0,flat,malasaña-universidad,intermedio,1,1
335000.0,flat,71.0,2,2,madrid,40.4121158,-3.7124082,good,4718.0,0,0,flat,palacio,en,1,0
360000.0,flat,84.0,2,1,madrid,40.4658748,-3.6342984,good,4286.0,1,1,flat,canillas,bajo,1,1
189000.0,flat,42.0,3,1,madrid,40.4079035,-3.7031114,good,4500.0,0,0,flat,lavapiés-embajadores,intermedio,0,1
550000.0,flat,90.0,3,2,madrid,40.4311574,-3.7215878,good,6111.0,0,0,flat,argüelles,mediano,1,1
307000.0,flat,129.0,3,2,collado villalba,40.6331231,-4.0158268,newdevelopment,2380.0,1,1,flat,los negrales,intermedio,1,1
859000.0,flat,129.0,3,2,madrid,40.4944528,-3.7018807,newdevelopment,6659.0,1,1,flat,mirasierra,flat,1,1
923000.0,flat,155.0,3,2,madrid,40.4944528,-3.7018807,newdevelopment,5955.0,1,1,flat,mirasierra,intermedio,1,1
960000.0,flat,167.0,4,2,madrid,40.4944528,-3.7018807,newdevelopment,5749.0,1,1,flat,mirasierra,intermedio,1,1
1019000.0,flat,152.0,4,2,madrid,40.4944528,-3.7018807,newdevelopment,6704.0,1,1,flat,mirasierra,intermedio,1,1
245000.0,flat,85.0,2,1,madrid,40.3461112,-3.7116589,newdevelopment,2882.0,1,0,flat,villaverde alto,intermedio,1,1
235000.0,flat,75.0,2,1,madrid,40.3461112,-3.7116589,newdevelopment,3133.0,1,0,flat,villaverde alto,intermedio,1,1
235000.0,flat,75.0,2,2,madrid,40.3461112,-3.7116589,newdevelopment,3133.0,1,0,flat,villaverde alto,intermedio,1,1
229900.0,flat,75.0,2,1,madrid,40.3461112,-3.7116589,newdevelopment,3065.0,1,0,flat,villaverde alto,intermedio,1,1
239900.0,flat,75.0,2,2,madrid,40.3461112,-3.7116589,newdevelopment,3199.0,1,0,flat,villaverde alto,intermedio,1,1
249000.0,flat,85.0,2,2,madrid,40.3461112,-3.7116589,newdevelopment,2929.0,1,0,flat,villaverde alto,intermedio,1,1
339000.0,penthouse,117.0,3,2,alcalá de henares,40.4973232,-3.3730218,good,2897.0,1,1,flat,ensanche,mediano,1,1
475000.0,flat,79.0,1,1,madrid,40.466734,-3.7080267,good,6013.0,1,1,flat,valdeacederas,mediano,1,1
272000.0,chalet,277.0,4,2,santa maría de la alameda,40.5672749,-4.2573533,good,982.0,1,1,chalet,santa maría de la alameda,alto,1,0
305000.0,chalet,210.0,3,2,villa del prado,40.2799182,-4.3550994,good,1452.0,1,1,chalet,villa del prado,alto,1,0
187000.0,flat,55.0,1,1,madrid,40.4749556,-3.649955,good,3400.0,1,0,flat,pinar del rey,bajo,1,1
225000.0,flat,160.0,7,2,madrid,40.4320344,-3.6483776,good,1406.0,0,0,flat,ventas,bajo,1,0
274900.0,flat,85.0,2,1,villaviciosa de odón,40.3578954,-3.9083183,good,3234.0,0,0,flat,centro,intermedio,1,0
546900.0,chalet,170.0,3,3,cotos de monterrey,40.788538,-3.6106257,newdevelopment,3217.0,0,0,chalet,cotos de monterrey,alto,1,0
420000.0,flat,167.0,4,3,alcalá de henares,40.497153,-3.375941,good,2515.0,1,1,flat,ensanche,intermedio,1,1
155000.0,flat,83.0,3,1,valdemoro,40.1918598,-3.6754621,good,1867.0,0,0,flat,centro,intermedio,1,1
241000.0,flat,96.0,3,2,fuenlabrada,40.2813934,-3.7920145,newdevelopment,2510.0,1,1,flat,centro,intermedio,1,1
240000.0,flat,111.0,3,2,fuenlabrada,40.2813934,-3.7920145,newdevelopment,2162.0,1,1,flat,centro,intermedio,1,1
